% program   : RTKLIB ver.2.4.3 demo5
% inp file  : ..\rover3_3.obs
% inp file  : ..\base3_4_m8t.obs
% inp file  : ..\base3_4_m8t.*
% obs start : 2016/07/12 00:21:24.0 GPST (week1905 174084.0s)
% obs end   : 2016/07/12 01:06:45.4 GPST (week1905 176805.4s)
% pos mode  : static-start
% freqs     : L1
% solution  : forward
% elev mask : 15.0 deg
% dynamics  : on
% tidecorr  : off
% ionos opt : broadcast
% tropo opt : saastamoinen
% ephemeris : broadcast
% navi sys  : gps glonass sbas
% amb res   : fix and hold
% amb glo   : fix and hold
% val thres : 3.0
% antenna1  :                       ( 0.0000  0.0000  0.0000)
% antenna2  :                       ( 0.0000  0.0000  0.0000)
% ref pos   : 40.175192635-105.032420638 1513.0734
%
% (e/n/u-baseline=WGS84,Q=1:fix,2:float,3:sbas,4:dgps,5:single,6:ppp,ns=# of satellites)
%  GPST                  e-baseline(m)  n-baseline(m)  u-baseline(m)   Q  ns   sde(m)   sdn(m)   sdu(m)  sden(m)  sdnu(m)  sdue(m) age(s)  ratio
2016/07/12 00:21:24.000        -6.2566       -15.5344        -2.5023   2  15   1.6092   1.6599   4.6690  -0.5835  -1.5084  -1.6019  -0.00    0.0
2016/07/12 00:21:24.600        -6.1865       -15.5161        -2.2024   2  15   1.2021   1.2505   3.5210  -0.4731  -1.1702  -1.1274  -0.00    0.0
2016/07/12 00:21:24.800        -6.1812       -15.5400        -1.9515   2  15   1.0016   1.0452   2.9450  -0.4064  -0.9898  -0.9142  -0.00    0.0
2016/07/12 00:21:25.000        -6.1750       -15.5456        -1.8363   2  15   0.8765   0.9162   2.5826  -0.3613  -0.8733  -0.7878  -0.00    0.0
2016/07/12 00:21:25.200        -6.1787       -15.5287        -1.8368   2  15   0.7891   0.8256   2.3275  -0.3284  -0.7900  -0.7020  -0.00    0.0
2016/07/12 00:21:25.400        -6.1802       -15.4914        -1.8646   2  15   0.7234   0.7575   2.1353  -0.3031  -0.7267  -0.6389  -0.00    0.0
2016/07/12 00:21:25.600        -6.1731       -15.4839        -1.9011   2  15   0.6719   0.7038   1.9837  -0.2828  -0.6765  -0.5901  -0.00    0.0
2016/07/12 00:21:25.800        -6.1762       -15.4924        -1.8862   2  15   0.6299   0.6601   1.8600  -0.2661  -0.6353  -0.5508  -0.00    0.0
2016/07/12 00:21:26.000        -6.1729       -15.5039        -1.8773   2  15   0.5950   0.6236   1.7566  -0.2520  -0.6008  -0.5183  -0.00    0.0
2016/07/12 00:21:26.200        -6.1643       -15.5058        -1.8820   2  15   0.5652   0.5925   1.6685  -0.2399  -0.5713  -0.4909  -0.00    0.0
2016/07/12 00:21:26.400        -6.1461       -15.5015        -1.8898   2  15   0.5395   0.5656   1.5921  -0.2294  -0.5457  -0.4673  -0.00    0.0
2016/07/12 00:21:26.600        -6.1325       -15.4972        -1.8549   2  15   0.5170   0.5420   1.5250  -0.2202  -0.5231  -0.4467  -0.00    0.0
2016/07/12 00:21:26.800        -6.1216       -15.5081        -1.8441   2  15   0.4971   0.5212   1.4655  -0.2119  -0.5031  -0.4285  -0.00    0.0
2016/07/12 00:21:27.000        -6.1161       -15.5232        -1.8290   2  15   0.4793   0.5025   1.4121  -0.2045  -0.4852  -0.4123  -0.00    0.0
2016/07/12 00:21:27.200        -6.1092       -15.5353        -1.7927   2  15   0.4633   0.4857   1.3640  -0.1978  -0.4690  -0.3977  -0.00    0.0
2016/07/12 00:21:27.400        -6.1018       -15.5558        -1.7537   2  15   0.4488   0.4704   1.3202  -0.1918  -0.4542  -0.3845  -0.00    0.0
2016/07/12 00:21:27.600        -6.0975       -15.5638        -1.7223   2  15   0.4355   0.4565   1.2801  -0.1862  -0.4408  -0.3724  -0.00    0.0
2016/07/12 00:21:27.800        -6.0975       -15.5684        -1.6851   2  15   0.4234   0.4437   1.2432  -0.1811  -0.4284  -0.3613  -0.00    0.0
2016/07/12 00:21:28.000        -6.0985       -15.5675        -1.6585   2  15   0.4122   0.4319   1.2091  -0.1763  -0.4169  -0.3511  -0.00    0.0
2016/07/12 00:21:28.200        -6.0981       -15.5666        -1.6043   2  15   0.4018   0.4210   1.1775  -0.1719  -0.4062  -0.3417  -0.00    0.0
2016/07/12 00:21:28.400        -6.0960       -15.5655        -1.5681   2  15   0.3922   0.4108   1.1480  -0.1678  -0.3963  -0.3329  -0.00    0.0
2016/07/12 00:21:28.600        -6.0943       -15.5611        -1.5455   2  15   0.3832   0.4013   1.1203  -0.1640  -0.3870  -0.3247  -0.00    0.0
2016/07/12 00:21:28.800        -6.0908       -15.5548        -1.5172   2  15   0.3748   0.3924   1.0944  -0.1604  -0.3783  -0.3170  -0.00    0.0
2016/07/12 00:21:29.000        -6.0956       -15.5500        -1.4540   2  15   0.3669   0.3841   1.0700  -0.1570  -0.3701  -0.3098  -0.00    0.0
2016/07/12 00:21:29.200        -6.0987       -15.5480        -1.4206   2  15   0.3595   0.3762   1.0469  -0.1538  -0.3624  -0.3029  -0.00    0.0
2016/07/12 00:21:29.400        -6.1000       -15.5459        -1.3882   2  15   0.3525   0.3688   1.0251  -0.1508  -0.3551  -0.2965  -0.00    0.0
2016/07/12 00:21:29.600        -6.1082       -15.5411        -1.3519   2  15   0.3459   0.3618   1.0044  -0.1480  -0.3482  -0.2904  -0.00    0.0
2016/07/12 00:21:29.800        -6.1168       -15.5396        -1.3103   2  15   0.3396   0.3552   0.9847  -0.1453  -0.3416  -0.2846  -0.00    0.0
2016/07/12 00:21:30.000        -6.1275       -15.5341        -1.2753   2  15   0.3337   0.3488   0.9660  -0.1427  -0.3353  -0.2791  -0.00    0.0
2016/07/12 00:21:30.200        -6.1427       -15.5285        -1.2362   2  15   0.3280   0.3428   0.9481  -0.1402  -0.3294  -0.2738  -0.00    0.0
2016/07/12 00:21:30.400        -6.1597       -15.5270        -1.1955   2  15   0.3226   0.3371   0.9309  -0.1379  -0.3237  -0.2688  -0.00    0.0
2016/07/12 00:21:30.600        -6.1753       -15.5252        -1.1605   2  15   0.3175   0.3316   0.9145  -0.1356  -0.3182  -0.2640  -0.00    0.0
2016/07/12 00:21:30.800        -6.1844       -15.5259        -1.1496   2  15   0.3126   0.3264   0.8988  -0.1335  -0.3130  -0.2593  -0.00    0.0
2016/07/12 00:21:31.000        -6.1940       -15.5310        -1.1054   2  15   0.3079   0.3214   0.8837  -0.1314  -0.3080  -0.2549  -0.00    0.0
2016/07/12 00:21:31.200        -6.1979       -15.5340        -1.0878   2  15   0.3034   0.3166   0.8692  -0.1294  -0.3032  -0.2507   0.20    0.0
2016/07/12 00:21:31.400        -6.2003       -15.5350        -1.0652   2  15   0.2991   0.3120   0.8552  -0.1275  -0.2985  -0.2466  -0.00    0.0
2016/07/12 00:21:31.600        -6.2047       -15.5376        -1.0415   2  15   0.2950   0.3075   0.8417  -0.1257  -0.2941  -0.2426  -0.00    0.0
2016/07/12 00:21:31.800        -6.2102       -15.5338        -1.0265   2  15   0.2910   0.3032   0.8286  -0.1239  -0.2898  -0.2388  -0.00    0.0
2016/07/12 00:21:32.000        -6.2111       -15.5422        -0.9949   2  15   0.2871   0.2991   0.8160  -0.1222  -0.2856  -0.2351  -0.00    0.0
2016/07/12 00:21:32.200        -6.2129       -15.5468        -0.9605   2  15   0.2834   0.2952   0.8038  -0.1206  -0.2816  -0.2316  -0.00    0.0
2016/07/12 00:21:32.400        -6.2136       -15.5539        -0.9301   2  15   0.2799   0.2913   0.7920  -0.1190  -0.2777  -0.2282  -0.00    0.0
2016/07/12 00:21:32.600        -6.2173       -15.5633        -0.9035   2  15   0.2765   0.2876   0.7806  -0.1174  -0.2739  -0.2248  -0.00    0.0
2016/07/12 00:21:32.800        -6.2221       -15.5718        -0.8727   2  15   0.2731   0.2840   0.7695  -0.1159  -0.2703  -0.2216  -0.00    0.0
2016/07/12 00:21:33.000        -6.2260       -15.5756        -0.8433   2  15   0.2699   0.2805   0.7587  -0.1145  -0.2668  -0.2185  -0.00    0.0
2016/07/12 00:21:33.200        -6.2286       -15.5783        -0.8436   2  15   0.2668   0.2772   0.7483  -0.1131  -0.2633  -0.2154   0.20    0.0
2016/07/12 00:21:33.400        -6.2330       -15.5875        -0.8190   2  15   0.2638   0.2739   0.7381  -0.1117  -0.2600  -0.2125  -0.00    0.0
2016/07/12 00:21:33.600        -6.2342       -15.5942        -0.8170   2  15   0.2609   0.2708   0.7282  -0.1103  -0.2568  -0.2096  -0.00    0.0
2016/07/12 00:21:33.800        -6.2320       -15.6087        -0.7972   2  15   0.2581   0.2677   0.7186  -0.1091  -0.2536  -0.2068  -0.00    0.0
2016/07/12 00:21:34.000        -6.2311       -15.6191        -0.7899   2  15   0.2553   0.2647   0.7092  -0.1078  -0.2506  -0.2041  -0.00    0.0
2016/07/12 00:21:34.200        -6.2304       -15.6342        -0.7542   2  15   0.2527   0.2618   0.7000  -0.1066  -0.2476  -0.2015  -0.00    0.0
2016/07/12 00:21:34.400        -6.2334       -15.6458        -0.7210   2  15   0.2501   0.2590   0.6911  -0.1054  -0.2447  -0.1989  -0.00    0.0
2016/07/12 00:21:34.600        -6.2370       -15.6587        -0.6917   2  15   0.2476   0.2562   0.6824  -0.1042  -0.2418  -0.1964  -0.00    0.0
2016/07/12 00:21:34.800        -6.2375       -15.6756        -0.6579   2  15   0.2451   0.2535   0.6739  -0.1030  -0.2391  -0.1939  -0.00    0.0
2016/07/12 00:21:35.000        -6.2388       -15.6898        -0.6115   2  15   0.2427   0.2509   0.6656  -0.1019  -0.2364  -0.1915  -0.00    0.0
2016/07/12 00:21:35.200        -6.2404       -15.7044        -0.5667   2  15   0.2404   0.2484   0.6575  -0.1008  -0.2338  -0.1892  -0.00    0.0
2016/07/12 00:21:35.400        -6.2426       -15.7181        -0.5204   2  15   0.2382   0.2459   0.6495  -0.0998  -0.2312  -0.1869  -0.00    0.0
2016/07/12 00:21:35.600        -6.2445       -15.7318        -0.4794   2  15   0.2360   0.2435   0.6418  -0.0987  -0.2287  -0.1846  -0.00    0.0
2016/07/12 00:21:35.800        -6.2434       -15.7419        -0.4691   2  15   0.2338   0.2411   0.6342  -0.0977  -0.2262  -0.1825  -0.00    0.0
2016/07/12 00:21:36.000        -6.2418       -15.7563        -0.4314   2  15   0.2317   0.2388   0.6267  -0.0967  -0.2238  -0.1803  -0.00    0.0
2016/07/12 00:21:36.200        -6.2390       -15.7709        -0.4058   2  15   0.2297   0.2365   0.6195  -0.0957  -0.2215  -0.1782   0.20    0.0
2016/07/12 00:21:36.400        -6.2417       -15.7808        -0.3687   2  15   0.2277   0.2343   0.6123  -0.0948  -0.2192  -0.1762  -0.00    0.0
2016/07/12 00:21:36.600        -6.2452       -15.7928        -0.3254   2  15   0.2257   0.2321   0.6053  -0.0938  -0.2169  -0.1742  -0.00    0.0
2016/07/12 00:21:36.800        -6.2529       -15.8015        -0.2864   2  15   0.2238   0.2300   0.5985  -0.0929  -0.2147  -0.1722  -0.00    0.0
2016/07/12 00:21:37.000        -6.2565       -15.8154        -0.2428   2  15   0.2220   0.2279   0.5918  -0.0920  -0.2126  -0.1703  -0.00    0.0
2016/07/12 00:21:37.200        -6.2574       -15.8304        -0.2307   2  15   0.2201   0.2259   0.5852  -0.0911  -0.2104  -0.1684   0.20    0.0
2016/07/12 00:21:37.400        -6.2618       -15.8373        -0.2136   2  15   0.2184   0.2239   0.5787  -0.0902  -0.2084  -0.1665  -0.00    0.0
2016/07/12 00:21:37.600        -6.2632       -15.8502        -0.1927   2  15   0.2166   0.2219   0.5724  -0.0894  -0.2063  -0.1647  -0.00    0.0
2016/07/12 00:21:37.800        -6.2633       -15.8603        -0.1840   2  15   0.2149   0.2200   0.5661  -0.0885  -0.2043  -0.1629  -0.00    0.0
2016/07/12 00:21:38.000        -6.2674       -15.8637        -0.1743   2  15   0.2132   0.2182   0.5600  -0.0877  -0.2024  -0.1612  -0.00    0.0
2016/07/12 00:21:38.200        -6.2682       -15.8777        -0.1495   2  15   0.2116   0.2163   0.5540  -0.0869  -0.2004  -0.1595  -0.00    0.0
2016/07/12 00:21:38.400        -6.2680       -15.8857        -0.1426   2  15   0.2100   0.2145   0.5481  -0.0861  -0.1986  -0.1578  -0.00    0.0
2016/07/12 00:21:38.600        -6.2682       -15.8929        -0.1270   2  15   0.2084   0.2127   0.5423  -0.0853  -0.1967  -0.1561  -0.00    0.0
2016/07/12 00:21:38.800        -6.2702       -15.9019        -0.0982   2  15   0.2069   0.2110   0.5366  -0.0845  -0.1949  -0.1545  -0.00    0.0
2016/07/12 00:21:39.000        -6.2711       -15.9127        -0.0661   2  15   0.2054   0.2093   0.5310  -0.0837  -0.1931  -0.1529  -0.00    0.0
2016/07/12 00:21:39.200        -6.2703       -15.9232        -0.0456   2  15   0.2039   0.2076   0.5255  -0.0830  -0.1913  -0.1514   0.20    0.0
2016/07/12 00:21:39.400        -6.2701       -15.9330        -0.0160   2  15   0.2024   0.2059   0.5201  -0.0822  -0.1896  -0.1498  -0.00    0.0
2016/07/12 00:21:39.600        -6.2747       -15.9403         0.0180   2  15   0.2010   0.2043   0.5148  -0.0815  -0.1879  -0.1483  -0.00    0.0
2016/07/12 00:21:39.800        -6.2783       -15.9482         0.0442   2  15   0.1996   0.2027   0.5096  -0.0807  -0.1862  -0.1468  -0.00    0.0
2016/07/12 00:21:40.000        -6.2845       -15.9547         0.0771   2  15   0.1982   0.2011   0.5044  -0.0800  -0.1846  -0.1454  -0.00    0.0
2016/07/12 00:21:40.200        -6.2929       -15.9598         0.1092   2  15   0.1969   0.1996   0.4994  -0.0793  -0.1830  -0.1439  -0.00    0.0
2016/07/12 00:21:40.400        -6.2969       -15.9679         0.1349   2  15   0.1955   0.1981   0.4944  -0.0786  -0.1814  -0.1425  -0.00    0.0
2016/07/12 00:21:40.600        -6.3039       -15.9716         0.1533   2  15   0.1942   0.1965   0.4895  -0.0779  -0.1798  -0.1411  -0.00    0.0
2016/07/12 00:21:40.800        -6.3057       -15.9763         0.1669   2  15   0.1929   0.1951   0.4846  -0.0772  -0.1783  -0.1398  -0.00    0.0
2016/07/12 00:21:41.000        -6.3108       -15.9787         0.1731   2  15   0.1917   0.1936   0.4799  -0.0766  -0.1767  -0.1384  -0.00    0.0
2016/07/12 00:21:41.200        -6.3135       -15.9906         0.2089   2  15   0.1904   0.1922   0.4752  -0.0759  -0.1752  -0.1371  -0.00    0.0
2016/07/12 00:21:41.400        -6.3169       -15.9989         0.2220   2  15   0.1892   0.1908   0.4706  -0.0753  -0.1738  -0.1358  -0.00    0.0
2016/07/12 00:21:41.600        -6.3193       -16.0076         0.2480   2  15   0.1880   0.1894   0.4661  -0.0746  -0.1723  -0.1345  -0.00    0.0
2016/07/12 00:21:41.800        -6.3233       -16.0164         0.2765   2  15   0.1868   0.1880   0.4616  -0.0740  -0.1709  -0.1333  -0.00    0.0
2016/07/12 00:21:42.000        -6.3264       -16.0232         0.2950   2  15   0.1857   0.1867   0.4572  -0.0733  -0.1695  -0.1320  -0.00    0.0
2016/07/12 00:21:42.200        -6.3276       -16.0299         0.3091   2  15   0.1845   0.1853   0.4528  -0.0727  -0.1681  -0.1308   0.20    0.0
2016/07/12 00:21:42.400        -6.3289       -16.0343         0.3231   2  15   0.1834   0.1840   0.4486  -0.0721  -0.1667  -0.1296  -0.00    0.0
2016/07/12 00:21:42.600        -6.3284       -16.0414         0.3427   2  15   0.1823   0.1827   0.4443  -0.0715  -0.1654  -0.1284  -0.00    0.0
2016/07/12 00:21:42.800        -6.3270       -16.0463         0.3628   2  15   0.1812   0.1815   0.4402  -0.0709  -0.1641  -0.1273  -0.00    0.0
2016/07/12 00:21:43.000        -6.3254       -16.0541         0.3769   2  15   0.1801   0.1802   0.4361  -0.0703  -0.1628  -0.1261  -0.00    0.0
2016/07/12 00:21:43.200        -6.3248       -16.0587         0.3871   2  15   0.1791   0.1789   0.4321  -0.0697  -0.1615  -0.1250  -0.00    0.0
2016/07/12 00:21:43.400        -6.3248       -16.0640         0.3963   2  15   0.1780   0.1777   0.4281  -0.0691  -0.1602  -0.1239  -0.00    0.0
2016/07/12 00:21:43.600        -6.3268       -16.0687         0.4113   2  15   0.1770   0.1765   0.4242  -0.0685  -0.1589  -0.1228  -0.00    0.0
2016/07/12 00:21:43.800        -6.3273       -16.0731         0.4240   2  15   0.1760   0.1753   0.4203  -0.0679  -0.1577  -0.1217  -0.00    0.0
2016/07/12 00:21:44.000        -6.3278       -16.0791         0.4328   2  15   0.1750   0.1741   0.4165  -0.0673  -0.1565  -0.1207  -0.00    0.0
2016/07/12 00:21:44.200        -6.3292       -16.0828         0.4442   2  15   0.1740   0.1730   0.4127  -0.0668  -0.1553  -0.1196  -0.00    0.0
2016/07/12 00:21:44.400        -6.3316       -16.0890         0.4687   2  15   0.1730   0.1718   0.4090  -0.0662  -0.1541  -0.1186  -0.00    0.0
2016/07/12 00:21:44.600        -6.3314       -16.0950         0.4808   2  15   0.1721   0.1707   0.4053  -0.0656  -0.1529  -0.1176  -0.00    0.0
2016/07/12 00:21:44.800        -6.3326       -16.0976         0.4833   2  15   0.1711   0.1696   0.4017  -0.0651  -0.1518  -0.1166  -0.00    0.0
2016/07/12 00:21:45.000        -6.3327       -16.1025         0.4956   2  15   0.1702   0.1685   0.3982  -0.0645  -0.1506  -0.1156  -0.00    0.0
2016/07/12 00:21:45.200        -6.3347       -16.1050         0.5127   2  15   0.1693   0.1674   0.3947  -0.0640  -0.1495  -0.1146  -0.00    0.0
2016/07/12 00:21:45.400        -6.3377       -16.1097         0.5350   2  15   0.1684   0.1663   0.3912  -0.0635  -0.1484  -0.1136  -0.00    0.0
2016/07/12 00:21:45.600        -6.3427       -16.1120         0.5496   2  15   0.1675   0.1652   0.3878  -0.0629  -0.1473  -0.1127  -0.00    0.0
2016/07/12 00:21:45.800        -6.3463       -16.1148         0.5692   2  15   0.1666   0.1642   0.3844  -0.0624  -0.1462  -0.1118  -0.00    0.0
2016/07/12 00:21:46.000        -6.3484       -16.1174         0.5833   2  15   0.1657   0.1631   0.3811  -0.0619  -0.1451  -0.1108  -0.00    0.0
2016/07/12 00:21:46.200        -6.3505       -16.1218         0.6057   2  15   0.1649   0.1621   0.3778  -0.0614  -0.1441  -0.1099  -0.00    0.0
2016/07/12 00:21:46.400        -6.3524       -16.1267         0.6191   2  15   0.1640   0.1611   0.3745  -0.0608  -0.1430  -0.1091  -0.00    0.0
2016/07/12 00:21:46.600        -6.3517       -16.1338         0.6333   2  15   0.1632   0.1601   0.3713  -0.0603  -0.1420  -0.1082  -0.00    0.0
2016/07/12 00:21:46.800        -6.3529       -16.1386         0.6439   2  15   0.1624   0.1591   0.3682  -0.0598  -0.1410  -0.1073  -0.00    0.0
2016/07/12 00:21:47.000        -6.3560       -16.1443         0.6607   2  15   0.1615   0.1581   0.3650  -0.0593  -0.1400  -0.1064  -0.00    0.0
2016/07/12 00:21:47.200        -6.3571       -16.1476         0.6610   2  15   0.1607   0.1571   0.3620  -0.0588  -0.1390  -0.1056  -0.00    0.0
2016/07/12 00:21:47.400        -6.3593       -16.1511         0.6714   2  15   0.1599   0.1561   0.3589  -0.0583  -0.1380  -0.1048  -0.00    0.0
2016/07/12 00:21:47.600        -6.3615       -16.1533         0.6799   2  15   0.1591   0.1552   0.3559  -0.0578  -0.1370  -0.1040  -0.00    0.0
2016/07/12 00:21:47.800        -6.3632       -16.1568         0.6863   2  15   0.1584   0.1542   0.3530  -0.0573  -0.1361  -0.1031  -0.00    0.0
2016/07/12 00:21:48.000        -6.3648       -16.1604         0.6952   2  15   0.1576   0.1533   0.3500  -0.0569  -0.1351  -0.1023  -0.00    0.0
2016/07/12 00:21:48.200        -6.3678       -16.1622         0.7071   2  15   0.1568   0.1524   0.3471  -0.0564  -0.1342  -0.1016  -0.00    0.0
2016/07/12 00:21:48.400        -6.3700       -16.1667         0.7151   2  15   0.1561   0.1515   0.3443  -0.0559  -0.1332  -0.1008  -0.00    0.0
2016/07/12 00:21:48.600        -6.3723       -16.1703         0.7257   2  15   0.1553   0.1505   0.3415  -0.0554  -0.1323  -0.1000  -0.00    0.0
2016/07/12 00:21:48.800        -6.3757       -16.1742         0.7399   2  15   0.1546   0.1497   0.3387  -0.0550  -0.1314  -0.0993  -0.00    0.0
2016/07/12 00:21:49.000        -6.3774       -16.1781         0.7532   2  15   0.1539   0.1488   0.3359  -0.0545  -0.1305  -0.0985  -0.00    0.0
2016/07/12 00:21:49.200        -6.3790       -16.1794         0.7628   2  15   0.1532   0.1479   0.3332  -0.0540  -0.1297  -0.0978  -0.00    0.0
2016/07/12 00:21:49.400        -6.3811       -16.1815         0.7736   2  15   0.1525   0.1470   0.3305  -0.0536  -0.1288  -0.0971  -0.00    0.0
2016/07/12 00:21:49.600        -6.3835       -16.1838         0.7874   2  15   0.1518   0.1462   0.3279  -0.0531  -0.1279  -0.0963  -0.00    0.0
2016/07/12 00:21:49.800        -6.3860       -16.1851         0.7974   2  15   0.1511   0.1453   0.3253  -0.0526  -0.1271  -0.0956  -0.00    0.0
2016/07/12 00:21:50.000        -6.3867       -16.1892         0.8123   2  15   0.1504   0.1445   0.3227  -0.0522  -0.1262  -0.0949  -0.00    0.0
2016/07/12 00:21:50.200        -6.3868       -16.1938         0.8238   2  15   0.1497   0.1436   0.3201  -0.0517  -0.1254  -0.0943  -0.00    0.0
2016/07/12 00:21:50.400        -6.3879       -16.1967         0.8369   2  15   0.1490   0.1428   0.3176  -0.0513  -0.1246  -0.0936  -0.00    0.0
2016/07/12 00:21:50.600        -6.3888       -16.2021         0.8560   2  15   0.1484   0.1420   0.3151  -0.0508  -0.1237  -0.0929  -0.00    0.0
2016/07/12 00:21:50.800        -6.3888       -16.2086         0.8816   2  15   0.1477   0.1412   0.3127  -0.0504  -0.1229  -0.0922  -0.00    0.0
2016/07/12 00:21:51.000        -6.3899       -16.2125         0.8904   2  15   0.1470   0.1404   0.3102  -0.0500  -0.1221  -0.0916  -0.00    0.0
2016/07/12 00:21:51.200        -6.3904       -16.2150         0.8942   2  15   0.1464   0.1396   0.3078  -0.0495  -0.1213  -0.0909   0.20    0.0
2016/07/12 00:21:51.400        -6.3902       -16.2162         0.8984   2  15   0.1458   0.1388   0.3054  -0.0491  -0.1206  -0.0903  -0.00    0.0
2016/07/12 00:21:51.600        -6.3901       -16.2203         0.9106   2  15   0.1451   0.1380   0.3031  -0.0487  -0.1198  -0.0897  -0.00    0.0
2016/07/12 00:21:51.800        -6.3901       -16.2238         0.9171   2  15   0.1445   0.1372   0.3008  -0.0482  -0.1190  -0.0891  -0.00    0.0
2016/07/12 00:21:52.000        -6.3907       -16.2275         0.9280   2  15   0.1439   0.1365   0.2985  -0.0478  -0.1183  -0.0885  -0.00    0.0
2016/07/12 00:21:52.200        -6.3915       -16.2320         0.9387   2  15   0.1433   0.1357   0.2962  -0.0474  -0.1175  -0.0879  -0.00    0.0
2016/07/12 00:21:52.400        -6.3902       -16.2363         0.9449   2  15   0.1427   0.1350   0.2940  -0.0470  -0.1168  -0.0873  -0.00    0.0
2016/07/12 00:21:52.600        -6.3902       -16.2400         0.9526   2  15   0.1421   0.1342   0.2917  -0.0465  -0.1160  -0.0867  -0.00    0.0
2016/07/12 00:21:52.800        -6.3896       -16.2478         0.9626   2  15   0.1415   0.1335   0.2896  -0.0461  -0.1153  -0.0861  -0.00    0.0
2016/07/12 00:21:53.000        -6.3896       -16.2581         0.9782   2  15   0.1409   0.1327   0.2874  -0.0457  -0.1146  -0.0855  -0.00    0.0
2016/07/12 00:21:53.200        -6.3877       -16.2628         0.9803   2  15   0.1403   0.1320   0.2852  -0.0453  -0.1139  -0.0850  -0.00    0.0
2016/07/12 00:21:53.400        -6.3867       -16.2700         0.9857   2  15   0.1397   0.1313   0.2831  -0.0449  -0.1132  -0.0844  -0.00    0.0
2016/07/12 00:21:53.600        -6.3862       -16.2771         0.9913   2  15   0.1392   0.1306   0.2810  -0.0445  -0.1125  -0.0838  -0.00    0.0
2016/07/12 00:21:53.800        -6.3882       -16.2798         1.0021   2  15   0.1386   0.1299   0.2790  -0.0441  -0.1118  -0.0833  -0.00    0.0
2016/07/12 00:21:54.000        -6.3874       -16.2843         1.0058   2  15   0.1381   0.1292   0.2769  -0.0437  -0.1111  -0.0828  -0.00    0.0
2016/07/12 00:21:54.200        -6.3875       -16.2912         1.0143   2  15   0.1375   0.1285   0.2749  -0.0433  -0.1104  -0.0822  -0.00    0.0
2016/07/12 00:21:54.400        -6.3866       -16.2982         1.0180   2  15   0.1369   0.1278   0.2729  -0.0429  -0.1098  -0.0817  -0.00    0.0
2016/07/12 00:21:54.600        -6.3858       -16.3041         1.0266   2  15   0.1364   0.1271   0.2709  -0.0425  -0.1091  -0.0812  -0.00    0.0
2016/07/12 00:21:54.800        -6.3848       -16.3108         1.0311   2  15   0.1359   0.1264   0.2690  -0.0421  -0.1085  -0.0807  -0.00    0.0
2016/07/12 00:21:55.000        -6.3836       -16.3173         1.0337   2  15   0.1353   0.1258   0.2670  -0.0417  -0.1078  -0.0802  -0.00    0.0
2016/07/12 00:21:55.200        -6.3838       -16.3224         1.0354   2  15   0.1348   0.1251   0.2651  -0.0413  -0.1072  -0.0797  -0.00    0.0
2016/07/12 00:21:55.400        -6.3840       -16.3271         1.0370   2  15   0.1343   0.1245   0.2632  -0.0409  -0.1065  -0.0792  -0.00    0.0
2016/07/12 00:21:55.600        -6.3841       -16.3352         1.0427   2  15   0.1338   0.1238   0.2614  -0.0405  -0.1059  -0.0787  -0.00    0.0
2016/07/12 00:21:55.800        -6.3845       -16.3421         1.0498   2  15   0.1332   0.1232   0.2595  -0.0401  -0.1053  -0.0782  -0.00    0.0
2016/07/12 00:21:56.000        -6.3858       -16.3419         1.0489   2  15   0.1327   0.1225   0.2577  -0.0397  -0.1047  -0.0777  -0.00    0.0
2016/07/12 00:21:56.200        -6.3855       -16.3468         1.0563   2  15   0.1322   0.1219   0.2559  -0.0394  -0.1040  -0.0773  -0.00    0.0
2016/07/12 00:21:56.400        -6.3871       -16.3492         1.0576   2  15   0.1317   0.1212   0.2541  -0.0390  -0.1034  -0.0768  -0.00    0.0
2016/07/12 00:21:56.600        -6.3866       -16.3526         1.0627   2  15   0.1312   0.1206   0.2523  -0.0386  -0.1028  -0.0763  -0.00    0.0
2016/07/12 00:21:56.800        -6.3877       -16.3555         1.0650   2  15   0.1307   0.1200   0.2505  -0.0382  -0.1022  -0.0759  -0.00    0.0
2016/07/12 00:21:57.000        -6.3858       -16.3608         1.0675   2  15   0.1303   0.1194   0.2488  -0.0378  -0.1017  -0.0754  -0.00    0.0
2016/07/12 00:21:57.200        -6.3851       -16.3644         1.0619   2  15   0.1298   0.1188   0.2471  -0.0375  -0.1011  -0.0750   0.20    0.0
2016/07/12 00:21:57.400        -6.3846       -16.3693         1.0616   2  15   0.1293   0.1182   0.2454  -0.0371  -0.1005  -0.0746  -0.00    0.0
2016/07/12 00:21:57.600        -6.3853       -16.3728         1.0660   2  15   0.1288   0.1176   0.2437  -0.0367  -0.0999  -0.0741  -0.00    0.0
2016/07/12 00:21:57.800        -6.3848       -16.3782         1.0723   2  15   0.1283   0.1170   0.2421  -0.0363  -0.0994  -0.0737  -0.00    0.0
2016/07/12 00:21:58.000        -6.3854       -16.3827         1.0780   2  15   0.1279   0.1164   0.2404  -0.0360  -0.0988  -0.0733  -0.00    0.0
2016/07/12 00:21:58.200        -6.3872       -16.3858         1.0774   2  15   0.1274   0.1158   0.2388  -0.0356  -0.0982  -0.0729   0.20    0.0
2016/07/12 00:21:58.400        -6.3889       -16.3869         1.0770   2  15   0.1270   0.1152   0.2372  -0.0352  -0.0977  -0.0724  -0.00    0.0
2016/07/12 00:21:58.600        -6.3911       -16.3898         1.0819   2  15   0.1265   0.1146   0.2356  -0.0349  -0.0971  -0.0720  -0.00    0.0
2016/07/12 00:21:58.800        -6.3934       -16.3936         1.0949   2  15   0.1260   0.1141   0.2340  -0.0345  -0.0966  -0.0716  -0.00    0.0
2016/07/12 00:21:59.000        -6.3958       -16.3974         1.1003   2  15   0.1256   0.1135   0.2325  -0.0341  -0.0961  -0.0712  -0.00    0.0
2016/07/12 00:21:59.200        -6.3992       -16.3997         1.1000   2  15   0.1251   0.1129   0.2309  -0.0338  -0.0955  -0.0708   0.20    0.0
2016/07/12 00:21:59.400        -6.4015       -16.4016         1.1016   2  15   0.1247   0.1124   0.2294  -0.0334  -0.0950  -0.0705  -0.00    0.0
2016/07/12 00:21:59.600        -6.4033       -16.4066         1.1057   2  15   0.1243   0.1118   0.2279  -0.0331  -0.0945  -0.0701  -0.00    0.0
2016/07/12 00:21:59.800        -6.4071       -16.4100         1.1110   2  15   0.1238   0.1113   0.2264  -0.0327  -0.0940  -0.0697  -0.00    0.0
2016/07/12 00:22:00.000        -6.4092       -16.4129         1.1183   2  15   0.1234   0.1107   0.2249  -0.0323  -0.0935  -0.0693  -0.00    0.0
2016/07/12 00:22:00.200        -6.4097       -16.4146         1.1204   2  15   0.1230   0.1102   0.2234  -0.0320  -0.0930  -0.0689  -0.00    0.0
2016/07/12 00:22:00.400        -6.4092       -16.4158         1.1177   2  15   0.1226   0.1096   0.2220  -0.0316  -0.0925  -0.0686  -0.00    0.0
2016/07/12 00:22:00.600        -6.4107       -16.4194         1.1235   2  15   0.1221   0.1091   0.2205  -0.0313  -0.0920  -0.0682  -0.00    0.0
2016/07/12 00:22:00.800        -6.4096       -16.4237         1.1286   2  15   0.1217   0.1086   0.2191  -0.0309  -0.0915  -0.0679  -0.00    0.0
2016/07/12 00:22:01.000        -6.4117       -16.4283         1.1353   2  15   0.1213   0.1081   0.2177  -0.0306  -0.0910  -0.0675  -0.00    0.0
2016/07/12 00:22:01.200        -6.4105       -16.4300         1.1371   2  15   0.1209   0.1075   0.2163  -0.0302  -0.0905  -0.0671  -0.00    0.0
2016/07/12 00:22:01.400        -6.4101       -16.4331         1.1403   2  15   0.1205   0.1070   0.2149  -0.0299  -0.0900  -0.0668  -0.00    0.0
2016/07/12 00:22:01.600        -6.4099       -16.4357         1.1451   2  15   0.1201   0.1065   0.2136  -0.0295  -0.0895  -0.0665  -0.00    0.0
2016/07/12 00:22:01.800        -6.4091       -16.4384         1.1452   2  15   0.1197   0.1060   0.2122  -0.0292  -0.0891  -0.0661  -0.00    0.0
2016/07/12 00:22:02.000        -6.4083       -16.4405         1.1492   2  15   0.1193   0.1055   0.2109  -0.0288  -0.0886  -0.0658  -0.00    0.0
2016/07/12 00:22:02.200        -6.4087       -16.4417         1.1521   2  15   0.1189   0.1050   0.2095  -0.0285  -0.0881  -0.0654  -0.00    0.0
2016/07/12 00:22:02.400        -6.4076       -16.4444         1.1515   2  15   0.1185   0.1045   0.2082  -0.0281  -0.0877  -0.0651  -0.00    0.0
2016/07/12 00:22:02.600        -6.4077       -16.4453         1.1536   2  15   0.1181   0.1040   0.2069  -0.0278  -0.0872  -0.0648  -0.00    0.0
2016/07/12 00:22:02.800        -6.4067       -16.4469         1.1533   2  15   0.1177   0.1035   0.2056  -0.0274  -0.0868  -0.0645  -0.00    0.0
2016/07/12 00:22:03.000        -6.4072       -16.4467         1.1544   2  15   0.1173   0.1030   0.2044  -0.0271  -0.0863  -0.0641  -0.00    0.0
2016/07/12 00:22:03.200        -6.4073       -16.4487         1.1595   2  15   0.1169   0.1025   0.2031  -0.0267  -0.0859  -0.0638  -0.00    0.0
2016/07/12 00:22:03.400        -6.4084       -16.4493         1.1629   2  15   0.1166   0.1020   0.2019  -0.0264  -0.0854  -0.0635  -0.00    0.0
2016/07/12 00:22:03.600        -6.4078       -16.4501         1.1634   2  15   0.1162   0.1016   0.2006  -0.0260  -0.0850  -0.0632  -0.00    0.0
2016/07/12 00:22:03.800        -6.4066       -16.4516         1.1645   2  15   0.1158   0.1011   0.1994  -0.0257  -0.0845  -0.0629  -0.00    0.0
2016/07/12 00:22:04.000        -6.4055       -16.4523         1.1598   2  15   0.1154   0.1006   0.1982  -0.0253  -0.0841  -0.0626  -0.00    0.0
2016/07/12 00:22:04.200        -6.4024       -16.4551         1.1607   2  15   0.1151   0.1002   0.1970  -0.0250  -0.0837  -0.0623  -0.00    0.0
2016/07/12 00:22:04.400        -6.3996       -16.4557         1.1629   2  15   0.1147   0.0997   0.1958  -0.0247  -0.0833  -0.0620  -0.00    0.0
2016/07/12 00:22:04.600        -6.3984       -16.4562         1.1629   2  15   0.1143   0.0992   0.1946  -0.0243  -0.0828  -0.0617  -0.00    0.0
2016/07/12 00:22:04.800        -6.3976       -16.4558         1.1610   2  15   0.1140   0.0988   0.1934  -0.0240  -0.0824  -0.0614  -0.00    0.0
2016/07/12 00:22:05.000        -6.3965       -16.4559         1.1595   2  15   0.1136   0.0983   0.1923  -0.0236  -0.0820  -0.0611  -0.00    0.0
2016/07/12 00:22:05.200        -6.3953       -16.4578         1.1615   2  15   0.1133   0.0979   0.1911  -0.0233  -0.0816  -0.0609  -0.00    0.0
2016/07/12 00:22:05.400        -6.3954       -16.4583         1.1620   2  15   0.1129   0.0974   0.1900  -0.0229  -0.0812  -0.0606  -0.00    0.0
2016/07/12 00:22:05.600        -6.3940       -16.4585         1.1632   2  15   0.1126   0.0970   0.1889  -0.0226  -0.0808  -0.0603  -0.00    0.0
2016/07/12 00:22:05.800        -6.3948       -16.4572         1.1593   2  15   0.1122   0.0966   0.1878  -0.0222  -0.0804  -0.0600  -0.00    0.0
2016/07/12 00:22:06.000        -6.3951       -16.4571         1.1585   2  15   0.1119   0.0961   0.1867  -0.0219  -0.0800  -0.0598  -0.00    0.0
2016/07/12 00:22:06.200        -6.3945       -16.4546         1.1579   2  15   0.1115   0.0957   0.1856  -0.0215  -0.0796  -0.0595  -0.00    0.0
2016/07/12 00:22:06.400        -6.3937       -16.4528         1.1545   2  15   0.1112   0.0953   0.1845  -0.0212  -0.0792  -0.0592  -0.00    0.0
2016/07/12 00:22:06.600        -6.3941       -16.4521         1.1533   2  15   0.1109   0.0948   0.1834  -0.0208  -0.0788  -0.0590  -0.00    0.0
2016/07/12 00:22:06.800        -6.3938       -16.4520         1.1533   2  15   0.1105   0.0944   0.1823  -0.0205  -0.0785  -0.0587  -0.00    0.0
2016/07/12 00:22:07.000        -6.3923       -16.4504         1.1549   2  15   0.1102   0.0940   0.1813  -0.0201  -0.0781  -0.0584  -0.00    0.0
2016/07/12 00:22:07.200        -6.3929       -16.4513         1.1567   2  15   0.1099   0.0936   0.1802  -0.0198  -0.0777  -0.0582  -0.00    0.0
2016/07/12 00:22:07.400        -6.3930       -16.4486         1.1532   2  15   0.1095   0.0932   0.1792  -0.0194  -0.0773  -0.0579  -0.00    0.0
2016/07/12 00:22:07.600        -6.3934       -16.4460         1.1552   2  15   0.1092   0.0927   0.1782  -0.0191  -0.0770  -0.0577  -0.00    0.0
2016/07/12 00:22:07.800        -6.3940       -16.4440         1.1527   2  15   0.1089   0.0923   0.1772  -0.0187  -0.0766  -0.0574  -0.00    0.0
2016/07/12 00:22:08.000        -6.3933       -16.4421         1.1522   2  15   0.1085   0.0919   0.1762  -0.0184  -0.0762  -0.0572  -0.00    0.0
2016/07/12 00:22:08.200        -6.3935       -16.4425         1.1532   2  15   0.1082   0.0915   0.1752  -0.0180  -0.0759  -0.0569  -0.00    0.0
2016/07/12 00:22:08.400        -6.3935       -16.4386         1.1522   2  15   0.1079   0.0911   0.1742  -0.0176  -0.0755  -0.0567  -0.00    0.0
2016/07/12 00:22:08.600        -6.3919       -16.4369         1.1547   2  15   0.1076   0.0907   0.1732  -0.0173  -0.0751  -0.0565  -0.00    0.0
2016/07/12 00:22:08.800        -6.3920       -16.4356         1.1571   2  15   0.1073   0.0903   0.1722  -0.0169  -0.0748  -0.0562  -0.00    0.0
2016/07/12 00:22:09.000        -6.3926       -16.4333         1.1590   2  15   0.1070   0.0899   0.1713  -0.0165  -0.0744  -0.0560  -0.00    0.0
2016/07/12 00:22:09.200        -6.3913       -16.4316         1.1630   2  15   0.1066   0.0895   0.1703  -0.0161  -0.0741  -0.0557  -0.00    0.0
2016/07/12 00:22:09.400        -6.3908       -16.4302         1.1656   2  15   0.1063   0.0892   0.1694  -0.0158  -0.0737  -0.0555  -0.00    0.0
2016/07/12 00:22:09.600        -6.3917       -16.4271         1.1665   2  15   0.1060   0.0888   0.1684  -0.0154  -0.0734  -0.0553  -0.00    0.0
2016/07/12 00:22:09.800        -6.3920       -16.4244         1.1689   2  15   0.1057   0.0884   0.1675  -0.0150  -0.0731  -0.0551  -0.00    0.0
2016/07/12 00:22:10.000        -6.3911       -16.4222         1.1684   2  15   0.1054   0.0880   0.1666  -0.0146  -0.0727  -0.0548  -0.00    0.0
2016/07/12 00:22:10.200        -6.3900       -16.4206         1.1652   2  15   0.1051   0.0876   0.1657  -0.0142  -0.0724  -0.0546  -0.00    0.0
2016/07/12 00:22:10.400        -6.3897       -16.4196         1.1680   2  15   0.1048   0.0873   0.1648  -0.0138  -0.0720  -0.0544  -0.00    0.0
2016/07/12 00:22:10.600        -6.3897       -16.4177         1.1686   2  15   0.1045   0.0869   0.1639  -0.0134  -0.0717  -0.0542  -0.00    0.0
2016/07/12 00:22:10.800        -6.3889       -16.4152         1.1691   2  15   0.1042   0.0865   0.1630  -0.0130  -0.0714  -0.0540  -0.00    0.0
2016/07/12 00:22:11.000        -6.3889       -16.4125         1.1689   2  15   0.1039   0.0861   0.1621  -0.0126  -0.0711  -0.0538  -0.00    0.0
2016/07/12 00:22:11.200        -6.3887       -16.4106         1.1681   2  15   0.1036   0.0858   0.1612  -0.0121  -0.0707  -0.0535  -0.00    0.0
2016/07/12 00:22:11.400        -6.3895       -16.4077         1.1654   2  15   0.1033   0.0854   0.1603  -0.0117  -0.0704  -0.0533  -0.00    0.0
2016/07/12 00:22:11.600        -6.3895       -16.4070         1.1665   2  15   0.1031   0.0851   0.1595  -0.0112  -0.0701  -0.0531  -0.00    0.0
2016/07/12 00:22:11.800        -6.3899       -16.4043         1.1672   2  15   0.1028   0.0847   0.1586  -0.0108  -0.0698  -0.0529  -0.00    0.0
2016/07/12 00:22:12.000        -6.3894       -16.4033         1.1667   2  15   0.1025   0.0843   0.1578  -0.0103  -0.0695  -0.0527  -0.00    0.0
2016/07/12 00:22:12.200        -6.3893       -16.4002         1.1648   2  15   0.1022   0.0840   0.1570  -0.0098  -0.0692  -0.0525   0.20    0.0
2016/07/12 00:22:12.400        -6.3885       -16.3987         1.1645   2  15   0.1019   0.0836   0.1561  -0.0093  -0.0689  -0.0523  -0.00    0.0
2016/07/12 00:22:12.600        -6.3874       -16.3968         1.1640   2  15   0.1016   0.0833   0.1553  -0.0087  -0.0686  -0.0521  -0.00    0.0
2016/07/12 00:22:12.800        -6.3867       -16.3939         1.1609   2  15   0.1014   0.0830   0.1545  -0.0082  -0.0682  -0.0519  -0.00    0.0
2016/07/12 00:22:13.000        -6.3868       -16.3919         1.1618   2  15   0.1011   0.0826   0.1537  -0.0076  -0.0679  -0.0517  -0.00    0.0
2016/07/12 00:22:13.200        -6.3861       -16.3904         1.1608   2  15   0.1008   0.0823   0.1529  -0.0070  -0.0676  -0.0515  -0.00    0.0
2016/07/12 00:22:13.400        -6.3860       -16.3859         1.1595   2  15   0.1005   0.0819   0.1521  -0.0063  -0.0673  -0.0513  -0.00    0.0
2016/07/12 00:22:13.600        -6.3860       -16.3843         1.1623   2  15   0.1003   0.0816   0.1513  -0.0055  -0.0671  -0.0511  -0.00    0.0
2016/07/12 00:22:13.800        -6.3866       -16.3831         1.1629   2  15   0.1000   0.0813   0.1505  -0.0046  -0.0668  -0.0510  -0.00    0.0
2016/07/12 00:22:14.000        -6.3862       -16.3805         1.1619   2  15   0.0997   0.0809   0.1497  -0.0036  -0.0665  -0.0508  -0.00    0.0
2016/07/12 00:22:14.200        -6.3867       -16.3788         1.1624   2  15   0.0995   0.0806   0.1490  -0.0021  -0.0662  -0.0506  -0.00    0.0
2016/07/12 00:22:14.400        -6.3866       -16.3760         1.1648   2  15   0.0992   0.0803   0.1482   0.0021  -0.0659  -0.0504  -0.00    0.0
2016/07/12 00:22:14.600        -6.3859       -16.3747         1.1662   2  15   0.0989   0.0799   0.1474   0.0035  -0.0656  -0.0502  -0.00    0.0
2016/07/12 00:22:14.800        -6.3854       -16.3734         1.1690   2  15   0.0987   0.0796   0.1467   0.0046  -0.0653  -0.0500  -0.00    0.0
2016/07/12 00:22:15.000        -6.3838       -16.3705         1.1722   2  15   0.0984   0.0793   0.1460   0.0054  -0.0650  -0.0499  -0.00    0.0
2016/07/12 00:22:15.200        -6.3823       -16.3686         1.1733   2  15   0.0981   0.0790   0.1452   0.0061  -0.0648  -0.0497   0.20    0.0
2016/07/12 00:22:15.400        -6.3811       -16.3670         1.1716   2  15   0.0979   0.0787   0.1445   0.0067  -0.0645  -0.0495  -0.00    0.0
2016/07/12 00:22:15.600        -6.3799       -16.3640         1.1703   2  15   0.0976   0.0783   0.1438   0.0072  -0.0642  -0.0493  -0.00    0.0
2016/07/12 00:22:15.800        -6.3794       -16.3635         1.1742   2  15   0.0974   0.0780   0.1430   0.0078  -0.0639  -0.0492  -0.00    0.0
2016/07/12 00:22:16.000        -6.3799       -16.3616         1.1747   2  15   0.0971   0.0777   0.1423   0.0082  -0.0637  -0.0490  -0.00    0.0
2016/07/12 00:22:16.200        -6.3800       -16.3594         1.1745   2  15   0.0969   0.0774   0.1416   0.0087  -0.0634  -0.0488  -0.00    0.0
2016/07/12 00:22:16.400        -6.3793       -16.3575         1.1739   2  15   0.0966   0.0771   0.1409   0.0091  -0.0631  -0.0486  -0.00    0.0
2016/07/12 00:22:16.600        -6.3793       -16.3554         1.1764   2  15   0.0964   0.0768   0.1402   0.0095  -0.0629  -0.0485  -0.00    0.0
2016/07/12 00:22:16.800        -6.3794       -16.3544         1.1782   2  15   0.0961   0.0765   0.1395   0.0098  -0.0626  -0.0483  -0.00    0.0
2016/07/12 00:22:17.000        -6.3799       -16.3530         1.1812   2  15   0.0959   0.0762   0.1388   0.0102  -0.0623  -0.0481  -0.00    0.0
2016/07/12 00:22:17.200        -6.3793       -16.3524         1.1811   2  15   0.0956   0.0759   0.1382   0.0105  -0.0621  -0.0480   0.20    0.0
2016/07/12 00:22:17.400        -6.3789       -16.3518         1.1838   2  15   0.0954   0.0756   0.1375   0.0108  -0.0618  -0.0478  -0.00    0.0
2016/07/12 00:22:17.600        -6.3789       -16.3494         1.1835   2  15   0.0951   0.0753   0.1368   0.0111  -0.0616  -0.0477  -0.00    0.0
2016/07/12 00:22:17.800        -6.3790       -16.3475         1.1832   2  15   0.0949   0.0750   0.1361   0.0114  -0.0613  -0.0475  -0.00    0.0
2016/07/12 00:22:18.000        -6.3792       -16.3465         1.1848   2  15   0.0946   0.0747   0.1355   0.0117  -0.0611  -0.0473  -0.00    0.0
2016/07/12 00:22:18.200        -6.3787       -16.3457         1.1822   2  15   0.0944   0.0744   0.1348   0.0120  -0.0608  -0.0472   0.20    0.0
2016/07/12 00:22:18.400        -6.3801       -16.3427         1.1843   2  15   0.0942   0.0741   0.1342   0.0122  -0.0606  -0.0470  -0.00    0.0
2016/07/12 00:22:18.600        -6.3805       -16.3415         1.1861   2  15   0.0939   0.0738   0.1335   0.0125  -0.0603  -0.0469  -0.00    0.0
2016/07/12 00:22:18.800        -6.3796       -16.3408         1.1878   2  15   0.0937   0.0736   0.1329   0.0127  -0.0601  -0.0467  -0.00    0.0
2016/07/12 00:22:19.000        -6.3800       -16.3376         1.1875   2  15   0.0934   0.0733   0.1323   0.0130  -0.0598  -0.0466  -0.00    0.0
2016/07/12 00:22:19.200        -6.3800       -16.3364         1.1879   2  15   0.0932   0.0730   0.1316   0.0132  -0.0596  -0.0464  -0.00    0.0
2016/07/12 00:22:19.400        -6.3790       -16.3351         1.1903   2  15   0.0930   0.0727   0.1310   0.0134  -0.0594  -0.0463  -0.00    0.0
2016/07/12 00:22:19.600        -6.3785       -16.3342         1.1901   2  15   0.0927   0.0724   0.1304   0.0136  -0.0591  -0.0461  -0.00    0.0
2016/07/12 00:22:19.800        -6.3789       -16.3337         1.1943   2  15   0.0925   0.0722   0.1298   0.0138  -0.0589  -0.0460  -0.00    0.0
2016/07/12 00:22:20.000        -6.3801       -16.3313         1.1956   2  15   0.0923   0.0719   0.1292   0.0140  -0.0586  -0.0458  -0.00    0.0
2016/07/12 00:22:20.200        -6.3800       -16.3302         1.1991   2  15   0.0921   0.0716   0.1286   0.0142  -0.0584  -0.0457  -0.00    0.0
2016/07/12 00:22:20.400        -6.3787       -16.3287         1.2008   2  15   0.0918   0.0713   0.1280   0.0144  -0.0582  -0.0455  -0.00    0.0
2016/07/12 00:22:20.600        -6.3792       -16.3266         1.2016   2  15   0.0916   0.0711   0.1274   0.0146  -0.0579  -0.0454  -0.00    0.0
2016/07/12 00:22:20.800        -6.3785       -16.3255         1.2034   2  15   0.0914   0.0708   0.1268   0.0148  -0.0577  -0.0453  -0.00    0.0
2016/07/12 00:22:21.000        -6.3779       -16.3232         1.2061   2  15   0.0912   0.0705   0.1262   0.0150  -0.0575  -0.0451  -0.00    0.0
2016/07/12 00:22:21.200        -6.3774       -16.3208         1.2069   2  15   0.0909   0.0703   0.1256   0.0151  -0.0573  -0.0450  -0.00    0.0
2016/07/12 00:22:21.400        -6.3756       -16.3197         1.2064   2  15   0.0907   0.0700   0.1250   0.0153  -0.0570  -0.0448  -0.00    0.0
2016/07/12 00:22:21.600        -6.3744       -16.3177         1.2075   2  15   0.0905   0.0697   0.1244   0.0154  -0.0568  -0.0447  -0.00    0.0
2016/07/12 00:22:21.800        -6.3736       -16.3177         1.2122   2  15   0.0903   0.0695   0.1239   0.0156  -0.0566  -0.0446  -0.00    0.0
2016/07/12 00:22:22.000        -6.3728       -16.3147         1.2129   2  15   0.0901   0.0692   0.1233   0.0158  -0.0564  -0.0444  -0.00    0.0
2016/07/12 00:22:22.200        -6.3728       -16.3136         1.2138   2  15   0.0898   0.0690   0.1228   0.0159  -0.0561  -0.0443  -0.00    0.0
2016/07/12 00:22:22.400        -6.3726       -16.3117         1.2144   2  15   0.0896   0.0687   0.1222   0.0161  -0.0559  -0.0441  -0.00    0.0
2016/07/12 00:22:22.600        -6.3718       -16.3098         1.2135   2  15   0.0894   0.0685   0.1216   0.0162  -0.0557  -0.0440  -0.00    0.0
2016/07/12 00:22:22.800        -6.3710       -16.3082         1.2142   2  15   0.0892   0.0682   0.1211   0.0163  -0.0555  -0.0439  -0.00    0.0
2016/07/12 00:22:23.000        -6.3696       -16.3076         1.2167   2  15   0.0890   0.0680   0.1205   0.0165  -0.0553  -0.0438  -0.00    0.0
2016/07/12 00:22:23.200        -6.3691       -16.3078         1.2169   2  15   0.0888   0.0677   0.1200   0.0166  -0.0551  -0.0436  -0.00    0.0
2016/07/12 00:22:23.400        -6.3681       -16.3070         1.2173   2  15   0.0886   0.0675   0.1195   0.0167  -0.0549  -0.0435  -0.00    0.0
2016/07/12 00:22:23.600        -6.3666       -16.3056         1.2175   2  15   0.0884   0.0672   0.1189   0.0169  -0.0547  -0.0434  -0.00    0.0
2016/07/12 00:22:23.800        -6.3657       -16.3032         1.2165   2  15   0.0881   0.0670   0.1184   0.0170  -0.0544  -0.0432  -0.00    0.0
2016/07/12 00:22:24.000        -6.3653       -16.3016         1.2161   2  15   0.0879   0.0667   0.1179   0.0171  -0.0542  -0.0431  -0.00    0.0
2016/07/12 00:22:24.200        -6.3655       -16.3001         1.2143   2  15   0.0877   0.0665   0.1174   0.0172  -0.0540  -0.0430   0.20    0.0
2016/07/12 00:22:24.400        -6.3640       -16.3009         1.2154   2  15   0.0875   0.0662   0.1168   0.0173  -0.0538  -0.0429  -0.00    0.0
2016/07/12 00:22:24.600        -6.3635       -16.2994         1.2165   2  15   0.0873   0.0660   0.1163   0.0174  -0.0536  -0.0427  -0.00    0.0
2016/07/12 00:22:24.800        -6.3615       -16.2973         1.2188   2  15   0.0871   0.0658   0.1158   0.0175  -0.0534  -0.0426  -0.00    0.0
2016/07/12 00:22:25.000        -6.3592       -16.2955         1.2185   2  15   0.0869   0.0655   0.1153   0.0177  -0.0532  -0.0425  -0.00    0.0
2016/07/12 00:22:25.200        -6.3570       -16.2939         1.2193   2  15   0.0867   0.0653   0.1148   0.0178  -0.0530  -0.0424  -0.00    0.0
2016/07/12 00:22:25.400        -6.3558       -16.2922         1.2212   2  15   0.0865   0.0651   0.1143   0.0179  -0.0528  -0.0422  -0.00    0.0
2016/07/12 00:22:25.600        -6.3535       -16.2896         1.2213   2  15   0.0863   0.0648   0.1138   0.0180  -0.0526  -0.0421  -0.00    0.0
2016/07/12 00:22:25.800        -6.3516       -16.2876         1.2213   2  15   0.0861   0.0646   0.1133   0.0181  -0.0524  -0.0420  -0.00    0.0
2016/07/12 00:22:26.000        -6.3504       -16.2849         1.2206   2  15   0.0859   0.0644   0.1128   0.0182  -0.0522  -0.0419  -0.00    0.0
2016/07/12 00:22:26.200        -6.3486       -16.2830         1.2213   2  15   0.0857   0.0641   0.1123   0.0182  -0.0520  -0.0418  -0.00    0.0
2016/07/12 00:22:26.400        -6.3464       -16.2814         1.2207   2  15   0.0855   0.0639   0.1119   0.0183  -0.0519  -0.0417  -0.00    0.0
2016/07/12 00:22:26.600        -6.3450       -16.2787         1.2195   2  15   0.0853   0.0637   0.1114   0.0184  -0.0517  -0.0415  -0.00    0.0
2016/07/12 00:22:26.800        -6.3427       -16.2781         1.2205   2  15   0.0851   0.0635   0.1109   0.0185  -0.0515  -0.0414  -0.00    0.0
2016/07/12 00:22:27.000        -6.3413       -16.2762         1.2210   2  15   0.0849   0.0632   0.1104   0.0186  -0.0513  -0.0413  -0.00    0.0
2016/07/12 00:22:27.200        -6.3394       -16.2746         1.2222   2  15   0.0847   0.0630   0.1100   0.0187  -0.0511  -0.0412  -0.00    0.0
2016/07/12 00:22:27.400        -6.3376       -16.2727         1.2213   2  15   0.0845   0.0628   0.1095   0.0188  -0.0509  -0.0411  -0.00    0.0
2016/07/12 00:22:27.600        -6.3355       -16.2704         1.2200   2  15   0.0844   0.0626   0.1090   0.0188  -0.0507  -0.0410  -0.00    0.0
2016/07/12 00:22:27.800        -6.3338       -16.2682         1.2216   2  15   0.0842   0.0624   0.1086   0.0189  -0.0506  -0.0409  -0.00    0.0
2016/07/12 00:22:28.000        -6.3315       -16.2666         1.2219   2  15   0.0840   0.0621   0.1081   0.0190  -0.0504  -0.0407  -0.00    0.0
2016/07/12 00:22:28.200        -6.3296       -16.2642         1.2216   2  15   0.0838   0.0619   0.1077   0.0191  -0.0502  -0.0406  -0.00    0.0
2016/07/12 00:22:28.400        -6.3276       -16.2619         1.2221   2  15   0.0836   0.0617   0.1072   0.0192  -0.0500  -0.0405  -0.00    0.0
2016/07/12 00:22:28.600        -6.3253       -16.2597         1.2212   2  15   0.0834   0.0615   0.1068   0.0192  -0.0498  -0.0404  -0.00    0.0
2016/07/12 00:22:28.800        -6.3235       -16.2582         1.2219   2  15   0.0832   0.0613   0.1063   0.0193  -0.0497  -0.0403  -0.00    0.0
2016/07/12 00:22:29.000        -6.3219       -16.2569         1.2218   2  15   0.0830   0.0611   0.1059   0.0194  -0.0495  -0.0402  -0.00    0.0
2016/07/12 00:22:29.200        -6.3191       -16.2551         1.2217   2  15   0.0828   0.0609   0.1055   0.0194  -0.0493  -0.0401  -0.00    0.0
2016/07/12 00:22:29.400        -6.3163       -16.2532         1.2226   2  15   0.0827   0.0607   0.1050   0.0195  -0.0491  -0.0400  -0.00    0.0
2016/07/12 00:22:29.600        -6.3143       -16.2518         1.2251   2  15   0.0825   0.0604   0.1046   0.0196  -0.0489  -0.0399  -0.00    0.0
2016/07/12 00:22:29.800        -6.3119       -16.2493         1.2264   2  15   0.0823   0.0602   0.1042   0.0196  -0.0488  -0.0398  -0.00    0.0
2016/07/12 00:22:30.000        -6.3098       -16.2470         1.2245   2  15   0.0821   0.0600   0.1037   0.0197  -0.0486  -0.0397  -0.00    0.0
2016/07/12 00:22:30.200        -6.3083       -16.2455         1.2230   2  15   0.0819   0.0598   0.1033   0.0197  -0.0484  -0.0396  -0.00    0.0
2016/07/12 00:22:30.400        -6.3058       -16.2445         1.2240   2  15   0.0818   0.0596   0.1029   0.0198  -0.0483  -0.0395  -0.00    0.0
2016/07/12 00:22:30.600        -6.3034       -16.2428         1.2230   2  15   0.0816   0.0594   0.1025   0.0199  -0.0481  -0.0394  -0.00    0.0
2016/07/12 00:22:30.800        -6.3009       -16.2412         1.2241   2  15   0.0814   0.0592   0.1021   0.0199  -0.0479  -0.0393  -0.00    0.0
2016/07/12 00:22:31.000        -6.2992       -16.2393         1.2251   2  15   0.0812   0.0590   0.1017   0.0200  -0.0478  -0.0392  -0.00    0.0
2016/07/12 00:22:31.200        -6.2978       -16.2366         1.2233   2  15   0.0810   0.0588   0.1012   0.0200  -0.0476  -0.0391  -0.00    0.0
2016/07/12 00:22:31.400        -6.2959       -16.2356         1.2238   2  15   0.0809   0.0586   0.1008   0.0201  -0.0474  -0.0390  -0.00    0.0
2016/07/12 00:22:31.600        -6.2935       -16.2335         1.2219   2  15   0.0807   0.0584   0.1004   0.0201  -0.0473  -0.0389  -0.00    0.0
2016/07/12 00:22:31.800        -6.2928       -16.2324         1.2235   2  15   0.0805   0.0582   0.1000   0.0202  -0.0471  -0.0388  -0.00    0.0
2016/07/12 00:22:32.000        -6.2910       -16.2305         1.2236   2  15   0.0803   0.0580   0.0996   0.0202  -0.0469  -0.0387  -0.00    0.0
2016/07/12 00:22:32.200        -6.2899       -16.2284         1.2228   2  15   0.0802   0.0579   0.0992   0.0203  -0.0468  -0.0386  -0.00    0.0
2016/07/12 00:22:32.400        -6.2877       -16.2271         1.2215   2  15   0.0800   0.0577   0.0988   0.0203  -0.0466  -0.0385  -0.00    0.0
2016/07/12 00:22:32.600        -6.2861       -16.2261         1.2237   2  15   0.0798   0.0575   0.0985   0.0204  -0.0465  -0.0384  -0.00    0.0
2016/07/12 00:22:32.800        -6.2837       -16.2242         1.2238   2  15   0.0797   0.0573   0.0981   0.0204  -0.0463  -0.0383  -0.00    0.0
2016/07/12 00:22:33.000        -6.2820       -16.2233         1.2253   2  15   0.0795   0.0571   0.0977   0.0205  -0.0462  -0.0382  -0.00    0.0
2016/07/12 00:22:33.200        -6.2813       -16.2211         1.2236   2  15   0.0793   0.0569   0.0973   0.0205  -0.0460  -0.0381  -0.00    0.0
2016/07/12 00:22:33.400        -6.2806       -16.2196         1.2227   2  15   0.0791   0.0567   0.0969   0.0206  -0.0458  -0.0380  -0.00    0.0
2016/07/12 00:22:33.600        -6.2789       -16.2158         1.2203   2  15   0.0790   0.0565   0.0965   0.0206  -0.0457  -0.0379  -0.00    0.0
2016/07/12 00:22:33.800        -6.2775       -16.2133         1.2192   2  15   0.0788   0.0563   0.0962   0.0206  -0.0455  -0.0378  -0.00    0.0
2016/07/12 00:22:34.000        -6.2766       -16.2123         1.2203   2  15   0.0786   0.0562   0.0958   0.0207  -0.0454  -0.0377  -0.00    0.0
2016/07/12 00:22:34.200        -6.2753       -16.2088         1.2201   2  15   0.0785   0.0560   0.0954   0.0207  -0.0452  -0.0376  -0.00    0.0
2016/07/12 00:22:34.400        -6.2737       -16.2072         1.2198   2  15   0.0783   0.0558   0.0951   0.0208  -0.0451  -0.0375  -0.00    0.0
2016/07/12 00:22:34.600        -6.2730       -16.2050         1.2196   2  15   0.0781   0.0556   0.0947   0.0208  -0.0449  -0.0374  -0.00    0.0
2016/07/12 00:22:34.800        -6.2716       -16.2032         1.2194   2  15   0.0780   0.0554   0.0943   0.0208  -0.0448  -0.0373  -0.00    0.0
2016/07/12 00:22:35.000        -6.2700       -16.2009         1.2194   2  15   0.0778   0.0553   0.0940   0.0209  -0.0446  -0.0372  -0.00    0.0
2016/07/12 00:22:35.200        -6.2692       -16.1996         1.2191   2  15   0.0776   0.0551   0.0936   0.0209  -0.0445  -0.0371  -0.00    0.0
2016/07/12 00:22:35.400        -6.2679       -16.1974         1.2170   2  15   0.0775   0.0549   0.0933   0.0209  -0.0443  -0.0371  -0.00    0.0
2016/07/12 00:22:35.600        -6.2671       -16.1956         1.2161   2  15   0.0773   0.0547   0.0929   0.0210  -0.0442  -0.0370  -0.00    0.0
2016/07/12 00:22:35.800        -6.2660       -16.1947         1.2169   2  15   0.0772   0.0546   0.0925   0.0210  -0.0440  -0.0369  -0.00    0.0
2016/07/12 00:22:36.000        -6.2660       -16.1922         1.2164   2  15   0.0770   0.0544   0.0922   0.0210  -0.0439  -0.0368  -0.00    0.0
2016/07/12 00:22:36.200        -6.2657       -16.1902         1.2167   2  15   0.0768   0.0542   0.0918   0.0211  -0.0438  -0.0367  -0.00    0.0
2016/07/12 00:22:36.400        -6.2645       -16.1879         1.2152   2  15   0.0767   0.0540   0.0915   0.0211  -0.0436  -0.0366  -0.00    0.0
2016/07/12 00:22:36.600        -6.2631       -16.1865         1.2149   2  15   0.0765   0.0539   0.0912   0.0211  -0.0435  -0.0365  -0.00    0.0
2016/07/12 00:22:36.800        -6.2623       -16.1850         1.2153   2  15   0.0764   0.0537   0.0908   0.0212  -0.0433  -0.0364  -0.00    0.0
2016/07/12 00:22:37.000        -6.2617       -16.1836         1.2160   2  15   0.0762   0.0535   0.0905   0.0212  -0.0432  -0.0364  -0.00    0.0
2016/07/12 00:22:37.200        -6.2611       -16.1819         1.2159   2  15   0.0760   0.0534   0.0901   0.0212  -0.0431  -0.0363  -0.00    0.0
2016/07/12 00:22:37.400        -6.2595       -16.1803         1.2165   2  15   0.0759   0.0532   0.0898   0.0212  -0.0429  -0.0362  -0.00    0.0
2016/07/12 00:22:37.600        -6.2593       -16.1790         1.2160   2  15   0.0757   0.0530   0.0895   0.0213  -0.0428  -0.0361  -0.00    0.0
2016/07/12 00:22:37.800        -6.2589       -16.1779         1.2162   2  15   0.0756   0.0529   0.0891   0.0213  -0.0426  -0.0360  -0.00    0.0
2016/07/12 00:22:38.000        -6.2574       -16.1764         1.2143   2  15   0.0754   0.0527   0.0888   0.0213  -0.0425  -0.0359  -0.00    0.0
2016/07/12 00:22:38.200        -6.2558       -16.1744         1.2129   2  15   0.0753   0.0525   0.0885   0.0213  -0.0424  -0.0359  -0.00    0.0
2016/07/12 00:22:38.400        -6.2546       -16.1727         1.2104   2  15   0.0751   0.0524   0.0882   0.0214  -0.0422  -0.0358  -0.00    0.0
2016/07/12 00:22:38.600        -6.2534       -16.1709         1.2095   2  15   0.0750   0.0522   0.0878   0.0214  -0.0421  -0.0357  -0.00    0.0
2016/07/12 00:22:38.800        -6.2527       -16.1694         1.2099   2  15   0.0748   0.0520   0.0875   0.0214  -0.0420  -0.0356  -0.00    0.0
2016/07/12 00:22:39.000        -6.2512       -16.1682         1.2095   2  15   0.0747   0.0519   0.0872   0.0214  -0.0418  -0.0355  -0.00    0.0
2016/07/12 00:22:39.200        -6.2499       -16.1667         1.2104   2  15   0.0745   0.0517   0.0869   0.0214  -0.0417  -0.0354  -0.00    0.0
2016/07/12 00:22:39.400        -6.2488       -16.1653         1.2097   2  15   0.0744   0.0516   0.0866   0.0215  -0.0416  -0.0354  -0.00    0.0
2016/07/12 00:22:39.600        -6.2483       -16.1631         1.2091   2  15   0.0742   0.0514   0.0863   0.0215  -0.0414  -0.0353  -0.00    0.0
2016/07/12 00:22:39.800        -6.2477       -16.1621         1.2087   2  15   0.0741   0.0512   0.0859   0.0215  -0.0413  -0.0352  -0.00    0.0
2016/07/12 00:22:40.000        -6.2470       -16.1596         1.2071   2  15   0.0739   0.0511   0.0856   0.0215  -0.0412  -0.0351  -0.00    0.0
2016/07/12 00:22:40.200        -6.2458       -16.1582         1.2076   2  15   0.0738   0.0509   0.0853   0.0215  -0.0411  -0.0350  -0.00    0.0
2016/07/12 00:22:40.400        -6.2449       -16.1560         1.2071   2  15   0.0736   0.0508   0.0850   0.0216  -0.0409  -0.0350  -0.00    0.0
2016/07/12 00:22:40.600        -6.2436       -16.1550         1.2086   2  15   0.0735   0.0506   0.0847   0.0216  -0.0408  -0.0349  -0.00    0.0
2016/07/12 00:22:40.800        -6.2431       -16.1529         1.2071   2  15   0.0733   0.0505   0.0844   0.0216  -0.0407  -0.0348  -0.00    0.0
2016/07/12 00:22:41.000        -6.2424       -16.1514         1.2057   2  15   0.0732   0.0503   0.0841   0.0216  -0.0405  -0.0347  -0.00    0.0
2016/07/12 00:22:41.200        -6.2412       -16.1502         1.2050   2  15   0.0730   0.0502   0.0838   0.0216  -0.0404  -0.0347  -0.00    0.0
2016/07/12 00:22:41.400        -6.2410       -16.1481         1.2053   2  15   0.0729   0.0500   0.0835   0.0216  -0.0403  -0.0346  -0.00    0.0
2016/07/12 00:22:41.600        -6.2409       -16.1466         1.2052   2  15   0.0727   0.0499   0.0832   0.0217  -0.0402  -0.0345  -0.00    0.0
2016/07/12 00:22:41.800        -6.2401       -16.1450         1.2056   2  15   0.0726   0.0497   0.0829   0.0217  -0.0400  -0.0344  -0.00    0.0
2016/07/12 00:22:42.000        -6.2396       -16.1435         1.2050   2  15   0.0725   0.0496   0.0826   0.0217  -0.0399  -0.0343  -0.00    0.0
2016/07/12 00:22:42.200        -6.2400       -16.1409         1.2033   2  15   0.0723   0.0494   0.0824   0.0217  -0.0398  -0.0343  -0.00    0.0
2016/07/12 00:22:42.400        -6.2397       -16.1389         1.2026   2  15   0.0722   0.0493   0.0821   0.0217  -0.0397  -0.0342  -0.00    0.0
2016/07/12 00:22:42.600        -6.2396       -16.1373         1.2029   2  15   0.0720   0.0491   0.0818   0.0217  -0.0396  -0.0341  -0.00    0.0
2016/07/12 00:22:42.800        -6.2395       -16.1358         1.2032   2  15   0.0719   0.0490   0.0815   0.0217  -0.0394  -0.0340  -0.00    0.0
2016/07/12 00:22:43.000        -6.2391       -16.1341         1.2034   2  15   0.0717   0.0488   0.0812   0.0217  -0.0393  -0.0340  -0.00    0.0
2016/07/12 00:22:43.200        -6.2391       -16.1333         1.2030   2  15   0.0716   0.0487   0.0809   0.0218  -0.0392  -0.0339  -0.00    0.0
2016/07/12 00:22:43.400        -6.2390       -16.1316         1.2019   2  15   0.0715   0.0485   0.0806   0.0218  -0.0391  -0.0338  -0.00    0.0
2016/07/12 00:22:43.600        -6.2399       -16.1302         1.2031   2  15   0.0713   0.0484   0.0804   0.0218  -0.0390  -0.0338  -0.00    0.0
2016/07/12 00:22:43.800        -6.2410       -16.1278         1.2022   2  15   0.0712   0.0482   0.0801   0.0218  -0.0389  -0.0337  -0.00    0.0
2016/07/12 00:22:44.000        -6.2416       -16.1267         1.2015   2  15   0.0710   0.0481   0.0798   0.0218  -0.0387  -0.0336  -0.00    0.0
2016/07/12 00:22:44.200        -6.2404       -16.1258         1.2032   2  15   0.0709   0.0480   0.0795   0.0218  -0.0386  -0.0335  -0.00    0.0
2016/07/12 00:22:44.400        -6.2400       -16.1245         1.2037   2  15   0.0708   0.0478   0.0793   0.0218  -0.0385  -0.0335  -0.00    0.0
2016/07/12 00:22:44.600        -6.2407       -16.1235         1.2044   2  15   0.0706   0.0477   0.0790   0.0218  -0.0384  -0.0334  -0.00    0.0
2016/07/12 00:22:44.800        -6.2410       -16.1205         1.2021   2  15   0.0705   0.0475   0.0787   0.0218  -0.0383  -0.0333  -0.00    0.0
2016/07/12 00:22:45.000        -6.2408       -16.1187         1.2029   2  15   0.0704   0.0474   0.0785   0.0218  -0.0382  -0.0332  -0.00    0.0
