% program   : RTKLIB ver.2.4.3 demo5
% inp file  : ..\rover3_4_m8t.obs
% inp file  : ..\base3_4_m8t.obs
% inp file  : ..\base3_4_m8t.*
% obs start : 2016/07/11 23:55:15.0 GPST (week1905 172515.0s)
% obs end   : 2016/07/12 01:06:29.0 GPST (week1905 176789.0s)
% pos mode  : static-start
% freqs     : L1
% solution  : forward
% elev mask : 15.0 deg
% dynamics  : on
% tidecorr  : off
% ionos opt : broadcast
% tropo opt : saastamoinen
% ephemeris : broadcast
% navi sys  : gps glonass sbas
% amb res   : fix and hold
% amb glo   : on
% val thres : 3.0
% antenna1  :                       ( 0.0000  0.0000  0.0000)
% antenna2  :                       ( 0.0000  0.0000  0.0000)
% ref pos   : 40.175192635-105.032420638 1513.0734
%
% (e/n/u-baseline=WGS84,Q=1:fix,2:float,3:sbas,4:dgps,5:single,6:ppp,ns=# of satellites)
%  GPST                  e-baseline(m)  n-baseline(m)  u-baseline(m)   Q  ns   sde(m)   sdn(m)   sdu(m)  sden(m)  sdnu(m)  sdue(m) age(s)  ratio
2016/07/11 23:55:15.000        -7.9351       -16.9350         1.2168   2  13   1.5248   1.5423   5.0453  -0.2708  -1.3490  -1.3375  -0.00    0.0
2016/07/11 23:55:15.200        -7.9659       -16.9611         1.4227   2  13   1.1567   1.1556   3.8600  -0.1991  -1.0408  -1.0655  -0.00    0.0
2016/07/11 23:55:15.400        -8.0066       -16.9916         1.6055   2  13   0.9693   0.9635   3.2453  -0.1641  -0.8778  -0.9095  -0.00    0.0
2016/07/11 23:55:15.600        -8.0434       -16.9624         1.7475   2  13   0.8509   0.8434   2.8534  -0.1426  -0.7732  -0.8060  -0.00    0.0
2016/07/11 23:55:15.800        -8.0778       -16.9493         1.8587   2  13   0.7674   0.7594   2.5755  -0.1278  -0.6987  -0.7311  -0.00    0.0
2016/07/11 23:55:16.000        -8.1067       -16.9400         1.9101   2  13   0.7044   0.6962   2.3652  -0.1168  -0.6423  -0.6736  -0.00    0.0
2016/07/11 23:55:16.200        -8.1146       -16.9453         1.9750   2  13   0.6548   0.6466   2.1988  -0.1082  -0.5976  -0.6277  -0.00    0.0
2016/07/11 23:55:16.400        -8.1250       -16.9421         1.9620   2  13   0.6143   0.6063   2.0627  -0.1012  -0.5610  -0.5899  -0.00    0.0
2016/07/11 23:55:16.600        -8.1414       -16.9488         1.9753   2  13   0.5805   0.5726   1.9487  -0.0954  -0.5304  -0.5581  -0.00    0.0
2016/07/11 23:55:16.800        -8.1386       -16.9557         1.9645   2  13   0.5518   0.5440   1.8513  -0.0905  -0.5043  -0.5308  -0.00    0.0
2016/07/11 23:55:17.000        -8.1214       -16.9719         1.9404   2  13   0.5269   0.5192   1.7667  -0.0863  -0.4817  -0.5070  -0.00    0.0
2016/07/11 23:55:17.200        -8.1123       -16.9903         1.9143   2  13   0.5050   0.4976   1.6924  -0.0826  -0.4618  -0.4861  -0.00    0.0
2016/07/11 23:55:17.400        -8.1117       -17.0121         1.9291   2  13   0.4857   0.4784   1.6264  -0.0794  -0.4441  -0.4674  -0.00    0.0
2016/07/11 23:55:17.600        -8.1028       -17.0298         1.9071   2  13   0.4684   0.4612   1.5672  -0.0765  -0.4284  -0.4506  -0.00    0.0
2016/07/11 23:55:17.800        -8.0970       -17.0482         1.8732   2  13   0.4528   0.4458   1.5136  -0.0738  -0.4141  -0.4354  -0.00    0.0
2016/07/11 23:55:18.000        -8.0881       -17.0601         1.7810   2  13   0.4387   0.4318   1.4648  -0.0715  -0.4011  -0.4216  -0.00    0.0
2016/07/11 23:55:18.200        -8.0709       -17.0687         1.7037   2  13   0.4258   0.4190   1.4202  -0.0693  -0.3893  -0.4089  -0.00    0.0
2016/07/11 23:55:18.600        -8.0630       -17.0765         1.6416   2  13   0.4140   0.4073   1.3783  -0.0673  -0.3784  -0.3969  -0.00    0.0
2016/07/11 23:55:18.800        -8.0546       -17.0816         1.6080   2  13   0.4030   0.3964   1.3397  -0.0655  -0.3683  -0.3859  -0.00    0.0
2016/07/11 23:55:19.000        -8.0435       -17.0773         1.5700   2  13   0.3929   0.3864   1.3038  -0.0638  -0.3589  -0.3757  -0.00    0.0
2016/07/11 23:55:19.200        -8.0356       -17.0745         1.5079   2  13   0.3835   0.3771   1.2703  -0.0622  -0.3502  -0.3661  -0.00    0.0
2016/07/11 23:55:19.400        -8.0262       -17.0654         1.4373   2  13   0.3747   0.3684   1.2390  -0.0607  -0.3421  -0.3572  -0.00    0.0
2016/07/11 23:55:19.600        -8.0217       -17.0569         1.3735   2  13   0.3665   0.3603   1.2097  -0.0593  -0.3345  -0.3488  -0.00    0.0
2016/07/11 23:55:19.800        -8.0146       -17.0514         1.3027   2  13   0.3588   0.3526   1.1820  -0.0580  -0.3273  -0.3409  -0.00    0.0
2016/07/11 23:55:20.000        -8.0136       -17.0419         1.2551   2  13   0.3516   0.3455   1.1559  -0.0568  -0.3206  -0.3334  -0.00    0.0
2016/07/11 23:55:20.200        -8.0070       -17.0275         1.1811   2  13   0.3447   0.3387   1.1312  -0.0556  -0.3142  -0.3263  -0.00    0.0
2016/07/11 23:55:20.400        -8.0013       -17.0099         1.1076   2  13   0.3383   0.3323   1.1077  -0.0545  -0.3082  -0.3196  -0.00    0.0
2016/07/11 23:55:20.600        -7.9932       -16.9984         1.0499   2  13   0.3321   0.3262   1.0854  -0.0535  -0.3025  -0.3132  -0.00    0.0
2016/07/11 23:55:20.800        -7.9844       -16.9920         0.9626   2  13   0.3263   0.3205   1.0642  -0.0525  -0.2971  -0.3071  -0.00    0.0
2016/07/11 23:55:21.000        -7.9783       -16.9812         0.8956   2  13   0.3208   0.3150   1.0439  -0.0515  -0.2919  -0.3013  -0.00    0.0
2016/07/11 23:55:21.200        -7.9675       -16.9792         0.8409   2  13   0.3155   0.3098   1.0245  -0.0506  -0.2870  -0.2957  -0.00    0.0
2016/07/11 23:55:21.400        -7.9607       -16.9758         0.7955   2  13   0.3105   0.3048   1.0059  -0.0498  -0.2823  -0.2903  -0.00    0.0
2016/07/11 23:55:21.600        -7.9550       -16.9725         0.7493   2  13   0.3057   0.3000   0.9880  -0.0489  -0.2778  -0.2852  -0.00    0.0
2016/07/11 23:55:21.800        -7.9496       -16.9664         0.7061   2  13   0.3011   0.2955   0.9709  -0.0481  -0.2735  -0.2803  -0.00    0.0
2016/07/11 23:55:22.000        -7.9461       -16.9642         0.6815   2  13   0.2967   0.2911   0.9544  -0.0474  -0.2693  -0.2755  -0.00    0.0
2016/07/11 23:55:22.200        -7.9452       -16.9595         0.6424   2  13   0.2925   0.2869   0.9385  -0.0466  -0.2653  -0.2710  -0.00    0.0
2016/07/11 23:55:22.400        -7.9407       -16.9550         0.5767   2  13   0.2885   0.2829   0.9231  -0.0459  -0.2615  -0.2666  -0.00    0.0
2016/07/11 23:55:22.600        -7.9382       -16.9510         0.5393   2  13   0.2846   0.2790   0.9083  -0.0453  -0.2578  -0.2623  -0.00    0.0
2016/07/11 23:55:22.800        -7.9381       -16.9504         0.5001   2  13   0.2808   0.2753   0.8940  -0.0446  -0.2543  -0.2582  -0.00    0.0
2016/07/11 23:55:23.000        -7.9398       -16.9467         0.4711   2  13   0.2772   0.2717   0.8801  -0.0439  -0.2509  -0.2542  -0.00    0.0
2016/07/11 23:55:23.200        -7.9394       -16.9448         0.4236   2  14   0.2737   0.2681   0.8667  -0.0431  -0.2476  -0.2503  -0.00    0.0
2016/07/11 23:55:23.400        -7.9414       -16.9492         0.3978   2  14   0.2704   0.2647   0.8537  -0.0424  -0.2445  -0.2466  -0.00    0.0
2016/07/11 23:55:23.600        -7.9464       -16.9450         0.3509   2  14   0.2671   0.2615   0.8411  -0.0418  -0.2414  -0.2429  -0.00    0.0
2016/07/11 23:55:23.800        -7.9501       -16.9415         0.3060   2  14   0.2640   0.2583   0.8288  -0.0411  -0.2385  -0.2394  -0.00    0.0
2016/07/11 23:55:24.000        -7.9547       -16.9368         0.2792   2  14   0.2609   0.2552   0.8169  -0.0405  -0.2356  -0.2359  -0.00    0.0
2016/07/11 23:55:24.200        -7.9596       -16.9346         0.2592   2  14   0.2580   0.2522   0.8053  -0.0399  -0.2328  -0.2326  -0.00    0.0
2016/07/11 23:55:24.400        -7.9637       -16.9336         0.2353   2  14   0.2551   0.2494   0.7940  -0.0393  -0.2301  -0.2293  -0.00    0.0
2016/07/11 23:55:24.600        -7.9698       -16.9309         0.2005   2  14   0.2524   0.2466   0.7831  -0.0387  -0.2275  -0.2262  -0.00    0.0
2016/07/11 23:55:24.800        -7.9751       -16.9283         0.1767   2  14   0.2497   0.2438   0.7724  -0.0382  -0.2249  -0.2231  -0.00    0.0
2016/07/11 23:55:25.000        -7.9789       -16.9296         0.1765   2  14   0.2471   0.2412   0.7620  -0.0377  -0.2225  -0.2201  -0.00    0.0
2016/07/11 23:55:25.200        -7.9832       -16.9299         0.1590   2  16   0.2445   0.2386   0.7517  -0.0369  -0.2202  -0.2172  -0.00    0.0
2016/07/11 23:55:25.400        -7.9846       -16.9295         0.1248   2  16   0.2420   0.2360   0.7417  -0.0363  -0.2179  -0.2143  -0.00    0.0
2016/07/11 23:55:25.600        -7.9838       -16.9306         0.0994   2  16   0.2396   0.2336   0.7319  -0.0358  -0.2157  -0.2116  -0.00    0.0
2016/07/11 23:55:25.800        -7.9856       -16.9356         0.1019   2  16   0.2372   0.2312   0.7224  -0.0352  -0.2136  -0.2088  -0.00    0.0
2016/07/11 23:55:26.000        -7.9862       -16.9397         0.0859   2  16   0.2350   0.2288   0.7132  -0.0347  -0.2114  -0.2062  -0.00    0.0
2016/07/11 23:55:26.200        -7.9889       -16.9421         0.0674   2  16   0.2327   0.2265   0.7040  -0.0342  -0.2094  -0.2036  -0.00    0.0
2016/07/11 23:55:26.400        -7.9931       -16.9490         0.0602   2  16   0.2306   0.2243   0.6952  -0.0337  -0.2074  -0.2011  -0.00    0.0
2016/07/11 23:55:26.600        -7.9983       -16.9550         0.0390   2  16   0.2284   0.2222   0.6865  -0.0331  -0.2054  -0.1986  -0.00    0.0
2016/07/11 23:55:26.800        -8.0049       -16.9614         0.0278   2  16   0.2264   0.2201   0.6780  -0.0327  -0.2034  -0.1962  -0.00    0.0
2016/07/11 23:55:27.000        -8.0127       -16.9666         0.0119   2  16   0.2244   0.2180   0.6697  -0.0322  -0.2015  -0.1938  -0.00    0.0
2016/07/11 23:55:27.200        -8.0158       -16.9735        -0.0115   2  16   0.2224   0.2160   0.6616  -0.0317  -0.1997  -0.1915  -0.00    0.0
2016/07/11 23:55:27.400        -8.0192       -16.9784        -0.0075   2  16   0.2205   0.2140   0.6536  -0.0312  -0.1978  -0.1892  -0.00    0.0
2016/07/11 23:55:27.600        -8.0213       -16.9817        -0.0194   2  16   0.2186   0.2121   0.6458  -0.0308  -0.1960  -0.1869  -0.00    0.0
2016/07/11 23:55:27.800        -8.0239       -16.9817        -0.0267   2  16   0.2168   0.2102   0.6382  -0.0304  -0.1943  -0.1848  -0.00    0.0
2016/07/11 23:55:28.000        -8.0246       -16.9754        -0.0449   2  16   0.2150   0.2084   0.6307  -0.0299  -0.1926  -0.1826  -0.00    0.0
2016/07/11 23:55:28.200        -8.0283       -16.9765        -0.0312   2  16   0.2132   0.2066   0.6234  -0.0295  -0.1909  -0.1805  -0.00    0.0
2016/07/11 23:55:28.400        -8.0311       -16.9775        -0.0401   2  16   0.2115   0.2048   0.6161  -0.0291  -0.1892  -0.1784  -0.00    0.0
2016/07/11 23:55:28.600        -8.0372       -16.9778        -0.0273   2  16   0.2099   0.2031   0.6091  -0.0287  -0.1876  -0.1764  -0.00    0.0
2016/07/11 23:55:28.800        -8.0404       -16.9741        -0.0348   2  16   0.2082   0.2014   0.6021  -0.0283  -0.1860  -0.1744  -0.00    0.0
2016/07/11 23:55:29.000        -8.0450       -16.9696        -0.0378   2  16   0.2066   0.1998   0.5953  -0.0279  -0.1844  -0.1725  -0.00    0.0
2016/07/11 23:55:29.200        -8.0494       -16.9677        -0.0435   2  16   0.2050   0.1981   0.5887  -0.0275  -0.1829  -0.1706  -0.00    0.0
2016/07/11 23:55:29.400        -8.0544       -16.9694        -0.0253   2  16   0.2035   0.1966   0.5821  -0.0271  -0.1813  -0.1687  -0.00    0.0
2016/07/11 23:55:29.600        -8.0581       -16.9704        -0.0390   2  16   0.2020   0.1950   0.5757  -0.0267  -0.1799  -0.1668  -0.00    0.0
2016/07/11 23:55:29.800        -8.0602       -16.9715        -0.0448   2  16   0.2005   0.1935   0.5693  -0.0263  -0.1784  -0.1650  -0.00    0.0
2016/07/11 23:55:30.000        -8.0652       -16.9725        -0.0514   2  16   0.1990   0.1920   0.5631  -0.0260  -0.1770  -0.1633  -0.00    0.0
2016/07/11 23:55:30.200        -8.0702       -16.9723        -0.0375   2  16   0.1976   0.1905   0.5570  -0.0256  -0.1755  -0.1615  -0.00    0.0
2016/07/11 23:55:30.400        -8.0762       -16.9719        -0.0358   2  16   0.1962   0.1890   0.5510  -0.0252  -0.1741  -0.1598  -0.00    0.0
2016/07/11 23:55:30.600        -8.0846       -16.9729        -0.0292   2  16   0.1948   0.1876   0.5451  -0.0249  -0.1728  -0.1581  -0.00    0.0
2016/07/11 23:55:30.800        -8.0932       -16.9712        -0.0241   2  16   0.1935   0.1862   0.5393  -0.0245  -0.1714  -0.1565  -0.00    0.0
2016/07/11 23:55:31.000        -8.0992       -16.9696        -0.0428   2  16   0.1922   0.1848   0.5336  -0.0242  -0.1701  -0.1548  -0.00    0.0
2016/07/11 23:55:31.200        -8.1065       -16.9694        -0.0402   2  16   0.1909   0.1835   0.5280  -0.0238  -0.1688  -0.1532  -0.00    0.0
2016/07/11 23:55:31.400        -8.1131       -16.9724        -0.0472   2  16   0.1896   0.1821   0.5225  -0.0235  -0.1675  -0.1516  -0.00    0.0
2016/07/11 23:55:31.600        -8.1196       -16.9760        -0.0390   2  16   0.1883   0.1808   0.5171  -0.0231  -0.1662  -0.1501  -0.00    0.0
2016/07/11 23:55:31.800        -8.1259       -16.9765        -0.0392   2  16   0.1871   0.1795   0.5117  -0.0228  -0.1650  -0.1486  -0.00    0.0
2016/07/11 23:55:32.000        -8.1325       -16.9766        -0.0354   2  16   0.1859   0.1783   0.5065  -0.0225  -0.1638  -0.1471  -0.00    0.0
2016/07/11 23:55:32.200        -8.1363       -16.9793        -0.0460   2  16   0.1847   0.1770   0.5013  -0.0221  -0.1625  -0.1456  -0.00    0.0
2016/07/11 23:55:32.400        -8.1439       -16.9806        -0.0425   2  16   0.1835   0.1758   0.4962  -0.0218  -0.1614  -0.1442  -0.00    0.0
2016/07/11 23:55:32.600        -8.1504       -16.9855        -0.0303   2  16   0.1824   0.1746   0.4912  -0.0215  -0.1602  -0.1427  -0.00    0.0
2016/07/11 23:55:32.800        -8.1558       -16.9867        -0.0210   2  16   0.1812   0.1734   0.4863  -0.0211  -0.1590  -0.1413  -0.00    0.0
2016/07/11 23:55:33.000        -8.1606       -16.9896        -0.0104   2  16   0.1801   0.1722   0.4815  -0.0208  -0.1579  -0.1399  -0.00    0.0
2016/07/11 23:55:33.200        -8.1667       -16.9923         0.0106   2  16   0.1790   0.1711   0.4767  -0.0204  -0.1568  -0.1386  -0.00    0.0
2016/07/11 23:55:33.400        -8.1700       -16.9936         0.0186   2  16   0.1779   0.1699   0.4720  -0.0201  -0.1556  -0.1373  -0.00    0.0
2016/07/11 23:55:33.600        -8.1749       -16.9960         0.0277   2  16   0.1769   0.1688   0.4673  -0.0198  -0.1546  -0.1359  -0.00    0.0
2016/07/11 23:55:33.800        -8.1792       -16.9998         0.0294   2  16   0.1758   0.1677   0.4628  -0.0195  -0.1535  -0.1346  -0.00    0.0
2016/07/11 23:55:34.000        -8.1851       -17.0005         0.0370   2  16   0.1748   0.1666   0.4583  -0.0192  -0.1524  -0.1334  -0.00    0.0
2016/07/11 23:55:34.200        -8.1894       -17.0029         0.0582   2  16   0.1737   0.1655   0.4539  -0.0188  -0.1514  -0.1321  -0.00    0.0
2016/07/11 23:55:34.400        -8.1918       -17.0060         0.0779   2  16   0.1727   0.1645   0.4495  -0.0185  -0.1503  -0.1309  -0.00    0.0
2016/07/11 23:55:34.600        -8.1951       -17.0089         0.0955   2  16   0.1718   0.1634   0.4452  -0.0182  -0.1493  -0.1296  -0.00    0.0
2016/07/11 23:55:34.800        -8.1998       -17.0107         0.1139   2  16   0.1708   0.1624   0.4410  -0.0179  -0.1483  -0.1284  -0.00    0.0
2016/07/11 23:55:35.000        -8.2047       -17.0128         0.1208   2  16   0.1698   0.1614   0.4368  -0.0176  -0.1473  -0.1273  -0.00    0.0
2016/07/11 23:55:35.200        -8.2078       -17.0164         0.1311   2  16   0.1689   0.1604   0.4327  -0.0173  -0.1463  -0.1261  -0.00    0.0
2016/07/11 23:55:35.400        -8.2127       -17.0210         0.1429   2  16   0.1679   0.1594   0.4287  -0.0169  -0.1453  -0.1249  -0.00    0.0
2016/07/11 23:55:35.600        -8.2162       -17.0274         0.1635   2  16   0.1670   0.1584   0.4247  -0.0166  -0.1444  -0.1238  -0.00    0.0
2016/07/11 23:55:35.800        -8.2193       -17.0320         0.1819   2  16   0.1661   0.1574   0.4207  -0.0163  -0.1434  -0.1227  -0.00    0.0
2016/07/11 23:55:36.000        -8.2217       -17.0334         0.2017   2  16   0.1652   0.1565   0.4169  -0.0160  -0.1425  -0.1216  -0.00    0.0
2016/07/11 23:55:36.200        -8.2258       -17.0375         0.2225   2  16   0.1643   0.1555   0.4130  -0.0156  -0.1416  -0.1205  -0.00    0.0
2016/07/11 23:55:36.400        -8.2296       -17.0424         0.2385   2  16   0.1635   0.1546   0.4093  -0.0153  -0.1406  -0.1194  -0.00    0.0
2016/07/11 23:55:36.600        -8.2341       -17.0472         0.2516   2  16   0.1626   0.1537   0.4056  -0.0150  -0.1397  -0.1184  -0.00    0.0
2016/07/11 23:55:36.800        -8.2400       -17.0489         0.2664   2  16   0.1618   0.1527   0.4019  -0.0147  -0.1389  -0.1174  -0.00    0.0
2016/07/11 23:55:37.000        -8.2462       -17.0504         0.2799   2  16   0.1609   0.1518   0.3983  -0.0143  -0.1380  -0.1163  -0.00    0.0
2016/07/11 23:55:37.200        -8.2500       -17.0520         0.3052   2  16   0.1601   0.1510   0.3947  -0.0140  -0.1371  -0.1153  -0.00    0.0
2016/07/11 23:55:37.400        -8.2542       -17.0559         0.3245   2  16   0.1593   0.1501   0.3912  -0.0137  -0.1362  -0.1143  -0.00    0.0
2016/07/11 23:55:37.600        -8.2585       -17.0604         0.3421   2  16   0.1585   0.1492   0.3877  -0.0133  -0.1354  -0.1134  -0.00    0.0
2016/07/11 23:55:37.800        -8.2620       -17.0608         0.3614   2  16   0.1577   0.1483   0.3843  -0.0130  -0.1346  -0.1124  -0.00    0.0
2016/07/11 23:55:38.000        -8.2660       -17.0655         0.3809   2  16   0.1569   0.1475   0.3809  -0.0126  -0.1337  -0.1114  -0.00    0.0
2016/07/11 23:55:38.200        -8.2676       -17.0694         0.4008   2  16   0.1561   0.1467   0.3776  -0.0123  -0.1329  -0.1105  -0.00    0.0
2016/07/11 23:55:38.400        -8.2732       -17.0709         0.4244   2  16   0.1553   0.1458   0.3743  -0.0119  -0.1321  -0.1096  -0.00    0.0
2016/07/11 23:55:38.600        -8.2765       -17.0732         0.4446   2  16   0.1546   0.1450   0.3711  -0.0115  -0.1313  -0.1087  -0.00    0.0
2016/07/11 23:55:38.800        -8.2797       -17.0756         0.4723   2  16   0.1538   0.1442   0.3679  -0.0112  -0.1305  -0.1078  -0.00    0.0
2016/07/11 23:55:39.000        -8.2824       -17.0760         0.4901   2  16   0.1531   0.1434   0.3647  -0.0108  -0.1297  -0.1069  -0.00    0.0
2016/07/11 23:55:39.200        -8.2847       -17.0743         0.5125   2  16   0.1523   0.1426   0.3616  -0.0104  -0.1289  -0.1060  -0.00    0.0
2016/07/11 23:55:39.400        -8.2881       -17.0773         0.5358   2  16   0.1516   0.1418   0.3586  -0.0100  -0.1282  -0.1051  -0.00    0.0
2016/07/11 23:55:39.600        -8.2904       -17.0755         0.5589   2  16   0.1509   0.1410   0.3555  -0.0096  -0.1274  -0.1043  -0.00    0.0
2016/07/11 23:55:39.800        -8.2902       -17.0744         0.5737   2  16   0.1502   0.1402   0.3525  -0.0092  -0.1267  -0.1035  -0.00    0.0
2016/07/11 23:55:40.000        -8.2896       -17.0731         0.5800   2  16   0.1495   0.1395   0.3496  -0.0087  -0.1259  -0.1026  -0.00    0.0
2016/07/11 23:55:40.200        -8.2934       -17.0744         0.5962   2  16   0.1488   0.1387   0.3467  -0.0083  -0.1252  -0.1018  -0.00    0.0
2016/07/11 23:55:40.400        -8.2930       -17.0769         0.6137   2  16   0.1481   0.1380   0.3438  -0.0078  -0.1244  -0.1010  -0.00    0.0
2016/07/11 23:55:40.600        -8.2944       -17.0792         0.6276   2  16   0.1474   0.1372   0.3410  -0.0073  -0.1237  -0.1002  -0.00    0.0
2016/07/11 23:55:40.800        -8.2970       -17.0813         0.6518   2  16   0.1468   0.1365   0.3381  -0.0068  -0.1230  -0.0994  -0.00    0.0
2016/07/11 23:55:41.000        -8.2982       -17.0839         0.6660   2  16   0.1461   0.1358   0.3354  -0.0063  -0.1223  -0.0987  -0.00    0.0
2016/07/11 23:55:41.200        -8.3005       -17.0859         0.6867   2  16   0.1455   0.1351   0.3326  -0.0057  -0.1216  -0.0979  -0.00    0.0
2016/07/11 23:55:41.400        -8.3035       -17.0861         0.7109   2  16   0.1448   0.1343   0.3299  -0.0050  -0.1209  -0.0971  -0.00    0.0
2016/07/11 23:55:41.600        -8.3036       -17.0847         0.7233   2  16   0.1442   0.1336   0.3273  -0.0042  -0.1202  -0.0964  -0.00    0.0
2016/07/11 23:55:41.800        -8.3058       -17.0846         0.7322   2  16   0.1435   0.1329   0.3247  -0.0033  -0.1196  -0.0957  -0.00    0.0
2016/07/11 23:55:42.000        -8.3092       -17.0855         0.7445   2  16   0.1429   0.1322   0.3221  -0.0021  -0.1189  -0.0949  -0.00    0.0
2016/07/11 23:55:42.200        -8.3133       -17.0843         0.7593   2  16   0.1423   0.1316   0.3195   0.0015  -0.1182  -0.0942  -0.00    0.0
2016/07/11 23:55:42.400        -8.3170       -17.0838         0.7637   2  16   0.1417   0.1309   0.3170   0.0030  -0.1176  -0.0935  -0.00    0.0
2016/07/11 23:55:42.600        -8.3188       -17.0847         0.7757   2  16   0.1411   0.1302   0.3144   0.0039  -0.1169  -0.0928  -0.00    0.0
2016/07/11 23:55:42.800        -8.3211       -17.0860         0.7828   2  16   0.1405   0.1295   0.3120   0.0047  -0.1163  -0.0921  -0.00    0.0
2016/07/11 23:55:43.000        -8.3250       -17.0856         0.8041   2  16   0.1399   0.1289   0.3095   0.0053  -0.1156  -0.0915  -0.00    0.0
2016/07/11 23:55:43.200        -8.3267       -17.0845         0.8066   2  16   0.1393   0.1282   0.3071   0.0059  -0.1150  -0.0908  -0.00    0.0
2016/07/11 23:55:43.400        -8.3305       -17.0831         0.8177   2  16   0.1387   0.1276   0.3047   0.0064  -0.1144  -0.0901  -0.00    0.0
2016/07/11 23:55:43.600        -8.3324       -17.0852         0.8268   2  16   0.1381   0.1269   0.3024   0.0068  -0.1138  -0.0895  -0.00    0.0
2016/07/11 23:55:43.800        -8.3350       -17.0868         0.8352   2  16   0.1375   0.1263   0.3001   0.0072  -0.1131  -0.0888  -0.00    0.0
2016/07/11 23:55:44.000        -8.3372       -17.0878         0.8476   2  16   0.1369   0.1257   0.2978   0.0076  -0.1125  -0.0882  -0.00    0.0
2016/07/11 23:55:44.200        -8.3379       -17.0898         0.8611   2  16   0.1364   0.1250   0.2955   0.0080  -0.1119  -0.0876  -0.00    0.0
2016/07/11 23:55:44.400        -8.3389       -17.0910         0.8733   2  16   0.1358   0.1244   0.2932   0.0084  -0.1113  -0.0869  -0.00    0.0
2016/07/11 23:55:44.600        -8.3403       -17.0918         0.8788   2  16   0.1353   0.1238   0.2910   0.0087  -0.1107  -0.0863  -0.00    0.0
2016/07/11 23:55:44.800        -8.3420       -17.0899         0.8917   2  16   0.1347   0.1232   0.2888   0.0090  -0.1102  -0.0857  -0.00    0.0
2016/07/11 23:55:45.000        -8.3433       -17.0891         0.9046   2  16   0.1342   0.1226   0.2867   0.0093  -0.1096  -0.0851  -0.00    0.0
2016/07/11 23:55:45.200        -8.3454       -17.0888         0.9131   2  16   0.1336   0.1220   0.2845   0.0096  -0.1090  -0.0845  -0.00    0.0
2016/07/11 23:55:45.400        -8.3477       -17.0903         0.9290   2  16   0.1331   0.1214   0.2824   0.0099  -0.1084  -0.0840  -0.00    0.0
2016/07/11 23:55:45.600        -8.3516       -17.0919         0.9442   2  16   0.1326   0.1208   0.2803   0.0101  -0.1079  -0.0834  -0.00    0.0
2016/07/11 23:55:45.800        -8.3538       -17.0892         0.9526   2  16   0.1321   0.1202   0.2783   0.0104  -0.1073  -0.0828  -0.00    0.0
2016/07/11 23:55:46.000        -8.3558       -17.0882         0.9635   2  16   0.1315   0.1196   0.2762   0.0106  -0.1068  -0.0822  -0.00    0.0
2016/07/11 23:55:46.200        -8.3587       -17.0867         0.9689   2  16   0.1310   0.1190   0.2742   0.0109  -0.1062  -0.0817  -0.00    0.0
2016/07/11 23:55:46.400        -8.3610       -17.0866         0.9796   2  16   0.1305   0.1185   0.2722   0.0111  -0.1057  -0.0811  -0.00    0.0
2016/07/11 23:55:46.600        -8.3618       -17.0872         0.9885   2  16   0.1300   0.1179   0.2702   0.0113  -0.1051  -0.0806  -0.00    0.0
2016/07/11 23:55:46.800        -8.3635       -17.0858         0.9952   2  16   0.1295   0.1173   0.2683   0.0115  -0.1046  -0.0801  -0.00    0.0
2016/07/11 23:55:47.000        -8.3633       -17.0867         1.0007   2  16   0.1290   0.1168   0.2664   0.0118  -0.1041  -0.0795  -0.00    0.0
2016/07/11 23:55:47.200        -8.3631       -17.0870         0.9980   2  16   0.1285   0.1162   0.2645   0.0120  -0.1035  -0.0790  -0.00    0.0
2016/07/11 23:55:47.400        -8.3631       -17.0873         1.0047   2  16   0.1280   0.1157   0.2626   0.0121  -0.1030  -0.0785  -0.00    0.0
2016/07/11 23:55:47.600        -8.3619       -17.0875         1.0103   2  16   0.1275   0.1151   0.2607   0.0123  -0.1025  -0.0780  -0.00    0.0
2016/07/11 23:55:47.800        -8.3607       -17.0864         1.0166   2  16   0.1271   0.1146   0.2589   0.0125  -0.1020  -0.0775  -0.00    0.0
2016/07/11 23:55:48.000        -8.3623       -17.0873         1.0262   2  16   0.1266   0.1141   0.2570   0.0127  -0.1015  -0.0770  -0.00    0.0
2016/07/11 23:55:48.200        -8.3616       -17.0880         1.0347   2  16   0.1261   0.1135   0.2552   0.0129  -0.1010  -0.0765  -0.00    0.0
2016/07/11 23:55:48.400        -8.3607       -17.0873         1.0397   2  16   0.1256   0.1130   0.2535   0.0130  -0.1005  -0.0760  -0.00    0.0
2016/07/11 23:55:48.600        -8.3607       -17.0865         1.0462   2  16   0.1252   0.1125   0.2517   0.0132  -0.1000  -0.0755  -0.00    0.0
2016/07/11 23:55:48.800        -8.3610       -17.0903         1.0605   2  16   0.1247   0.1120   0.2500   0.0134  -0.0995  -0.0751  -0.00    0.0
2016/07/11 23:55:49.000        -8.3591       -17.0921         1.0712   2  16   0.1243   0.1115   0.2482   0.0135  -0.0990  -0.0746  -0.00    0.0
2016/07/11 23:55:49.200        -8.3579       -17.0924         1.0849   2  16   0.1238   0.1109   0.2465   0.0137  -0.0985  -0.0741  -0.00    0.0
2016/07/11 23:55:49.400        -8.3549       -17.0932         1.0961   2  16   0.1233   0.1104   0.2448   0.0138  -0.0980  -0.0737  -0.00    0.0
2016/07/11 23:55:49.600        -8.3533       -17.0936         1.1022   2  16   0.1229   0.1099   0.2432   0.0140  -0.0976  -0.0732  -0.00    0.0
2016/07/11 23:55:49.800        -8.3520       -17.0924         1.1035   2  16   0.1225   0.1094   0.2415   0.0141  -0.0971  -0.0728  -0.00    0.0
2016/07/11 23:55:50.000        -8.3500       -17.0942         1.1089   2  16   0.1220   0.1089   0.2399   0.0142  -0.0966  -0.0723  -0.00    0.0
2016/07/11 23:55:50.200        -8.3495       -17.0956         1.1145   2  16   0.1216   0.1084   0.2383   0.0144  -0.0961  -0.0719  -0.00    0.0
2016/07/11 23:55:50.400        -8.3489       -17.0965         1.1236   2  16   0.1211   0.1079   0.2367   0.0145  -0.0957  -0.0714  -0.00    0.0
2016/07/11 23:55:50.600        -8.3487       -17.0953         1.1314   2  16   0.1207   0.1075   0.2351   0.0146  -0.0952  -0.0710  -0.00    0.0
2016/07/11 23:55:50.800        -8.3482       -17.0952         1.1395   2  16   0.1203   0.1070   0.2335   0.0148  -0.0948  -0.0706  -0.00    0.0
2016/07/11 23:55:51.000        -8.3478       -17.0961         1.1481   2  16   0.1199   0.1065   0.2320   0.0149  -0.0943  -0.0702  -0.00    0.0
2016/07/11 23:55:51.200        -8.3460       -17.0958         1.1513   2  16   0.1194   0.1060   0.2304   0.0150  -0.0939  -0.0698  -0.00    0.0
2016/07/11 23:55:51.400        -8.3450       -17.0957         1.1546   2  16   0.1190   0.1056   0.2289   0.0151  -0.0934  -0.0693  -0.00    0.0
2016/07/11 23:55:51.600        -8.3443       -17.0972         1.1605   2  16   0.1186   0.1051   0.2274   0.0152  -0.0930  -0.0689  -0.00    0.0
2016/07/11 23:55:51.800        -8.3433       -17.0997         1.1642   2  16   0.1182   0.1046   0.2260   0.0153  -0.0926  -0.0685  -0.00    0.0
2016/07/11 23:55:52.000        -8.3418       -17.1001         1.1693   2  16   0.1178   0.1042   0.2245   0.0154  -0.0921  -0.0681  -0.00    0.0
2016/07/11 23:55:52.200        -8.3406       -17.0997         1.1699   2  16   0.1174   0.1037   0.2230   0.0156  -0.0917  -0.0678  -0.00    0.0
2016/07/11 23:55:52.400        -8.3395       -17.1004         1.1742   2  16   0.1170   0.1032   0.2216   0.0157  -0.0913  -0.0674  -0.00    0.0
2016/07/11 23:55:52.600        -8.3369       -17.1004         1.1765   2  16   0.1166   0.1028   0.2202   0.0158  -0.0909  -0.0670  -0.00    0.0
2016/07/11 23:55:52.800        -8.3362       -17.1011         1.1845   2  16   0.1162   0.1023   0.2188   0.0159  -0.0904  -0.0666  -0.00    0.0
2016/07/11 23:55:53.000        -8.3345       -17.0993         1.1894   2  16   0.1158   0.1019   0.2174   0.0160  -0.0900  -0.0662  -0.00    0.0
2016/07/11 23:55:53.200        -8.3342       -17.0999         1.1968   2  16   0.1154   0.1015   0.2160   0.0160  -0.0896  -0.0659  -0.00    0.0
2016/07/11 23:55:53.400        -8.3334       -17.0996         1.1969   2  16   0.1150   0.1010   0.2146   0.0161  -0.0892  -0.0655  -0.00    0.0
2016/07/11 23:55:53.600        -8.3330       -17.1004         1.2007   2  16   0.1146   0.1006   0.2133   0.0162  -0.0888  -0.0651  -0.00    0.0
2016/07/11 23:55:53.800        -8.3310       -17.0993         1.1991   2  16   0.1142   0.1001   0.2119   0.0163  -0.0884  -0.0648  -0.00    0.0
2016/07/11 23:55:54.000        -8.3311       -17.0975         1.2067   2  16   0.1139   0.0997   0.2106   0.0164  -0.0880  -0.0644  -0.00    0.0
2016/07/11 23:55:54.200        -8.3311       -17.0969         1.2103   2  16   0.1135   0.0993   0.2093   0.0165  -0.0876  -0.0641  -0.00    0.0
2016/07/11 23:55:54.400        -8.3312       -17.0965         1.2163   2  16   0.1131   0.0989   0.2080   0.0166  -0.0872  -0.0637  -0.00    0.0
2016/07/11 23:55:54.600        -8.3320       -17.0957         1.2228   2  16   0.1127   0.0984   0.2067   0.0167  -0.0868  -0.0634  -0.00    0.0
2016/07/11 23:55:54.800        -8.3319       -17.0920         1.2231   2  16   0.1124   0.0980   0.2054   0.0167  -0.0864  -0.0630  -0.00    0.0
2016/07/11 23:55:55.000        -8.3327       -17.0894         1.2254   2  16   0.1120   0.0976   0.2042   0.0168  -0.0860  -0.0627  -0.00    0.0
2016/07/11 23:55:55.200        -8.3339       -17.0881         1.2356   2  16   0.1116   0.0972   0.2029   0.0169  -0.0856  -0.0624  -0.00    0.0
2016/07/11 23:55:55.400        -8.3346       -17.0839         1.2380   2  16   0.1113   0.0968   0.2017   0.0170  -0.0853  -0.0620  -0.00    0.0
2016/07/11 23:55:55.600        -8.3343       -17.0806         1.2400   2  16   0.1109   0.0964   0.2005   0.0170  -0.0849  -0.0617  -0.00    0.0
2016/07/11 23:55:55.800        -8.3351       -17.0782         1.2403   2  16   0.1105   0.0960   0.1993   0.0171  -0.0845  -0.0614  -0.00    0.0
2016/07/11 23:55:56.000        -8.3346       -17.0766         1.2448   2  16   0.1102   0.0956   0.1981   0.0172  -0.0841  -0.0611  -0.00    0.0
2016/07/11 23:55:56.200        -8.3352       -17.0753         1.2505   2  16   0.1098   0.0952   0.1969   0.0173  -0.0838  -0.0607  -0.00    0.0
2016/07/11 23:55:56.400        -8.3358       -17.0733         1.2543   2  16   0.1095   0.0948   0.1957   0.0173  -0.0834  -0.0604  -0.00    0.0
2016/07/11 23:55:56.600        -8.3357       -17.0709         1.2589   2  16   0.1091   0.0944   0.1945   0.0174  -0.0830  -0.0601  -0.00    0.0
2016/07/11 23:55:56.800        -8.3362       -17.0687         1.2639   2  16   0.1088   0.0940   0.1934   0.0175  -0.0827  -0.0598  -0.00    0.0
2016/07/11 23:55:57.000        -8.3373       -17.0674         1.2705   2  16   0.1084   0.0936   0.1922   0.0175  -0.0823  -0.0595  -0.00    0.0
2016/07/11 23:55:57.200        -8.3372       -17.0657         1.2738   2  16   0.1081   0.0932   0.1911   0.0176  -0.0820  -0.0592  -0.00    0.0
2016/07/11 23:55:57.400        -8.3368       -17.0633         1.2770   2  16   0.1078   0.0928   0.1900   0.0176  -0.0816  -0.0589  -0.00    0.0
2016/07/11 23:55:57.600        -8.3370       -17.0632         1.2834   2  16   0.1074   0.0924   0.1889   0.0177  -0.0812  -0.0586  -0.00    0.0
2016/07/11 23:55:57.800        -8.3387       -17.0615         1.2889   2  16   0.1071   0.0921   0.1878   0.0178  -0.0809  -0.0583  -0.00    0.0
2016/07/11 23:55:58.000        -8.3390       -17.0612         1.2931   2  16   0.1067   0.0917   0.1867   0.0178  -0.0805  -0.0580  -0.00    0.0
2016/07/11 23:55:58.200        -8.3398       -17.0612         1.2971   2  16   0.1064   0.0913   0.1856   0.0179  -0.0802  -0.0577  -0.00    0.0
2016/07/11 23:55:58.400        -8.3413       -17.0622         1.3048   2  16   0.1061   0.0909   0.1845   0.0179  -0.0799  -0.0575  -0.00    0.0
2016/07/11 23:55:58.600        -8.3416       -17.0631         1.3120   2  16   0.1058   0.0906   0.1835   0.0180  -0.0795  -0.0572  -0.00    0.0
2016/07/11 23:55:58.800        -8.3426       -17.0623         1.3217   2  16   0.1054   0.0902   0.1824   0.0180  -0.0792  -0.0569  -0.00    0.0
2016/07/11 23:55:59.000        -8.3414       -17.0611         1.3268   2  16   0.1051   0.0898   0.1814   0.0181  -0.0788  -0.0566  -0.00    0.0
2016/07/11 23:55:59.200        -8.3407       -17.0612         1.3357   2  16   0.1048   0.0895   0.1803   0.0181  -0.0785  -0.0564  -0.00    0.0
2016/07/11 23:55:59.400        -8.3404       -17.0592         1.3377   2  16   0.1045   0.0891   0.1793   0.0182  -0.0782  -0.0561  -0.00    0.0
2016/07/11 23:55:59.600        -8.3393       -17.0569         1.3414   2  16   0.1041   0.0888   0.1783   0.0182  -0.0779  -0.0558  -0.00    0.0
2016/07/11 23:55:59.800        -8.3391       -17.0560         1.3471   2  16   0.1038   0.0884   0.1773   0.0183  -0.0775  -0.0556  -0.00    0.0
2016/07/11 23:56:00.000        -8.3375       -17.0540         1.3517   2  16   0.1035   0.0880   0.1763   0.0183  -0.0772  -0.0553  -0.00    0.0
2016/07/11 23:56:00.200        -8.3366       -17.0524         1.3536   2  16   0.1032   0.0877   0.1753   0.0184  -0.0769  -0.0550  -0.00    0.0
2016/07/11 23:56:00.400        -8.3362       -17.0511         1.3574   2  16   0.1029   0.0873   0.1743   0.0184  -0.0766  -0.0548  -0.00    0.0
2016/07/11 23:56:00.600        -8.3354       -17.0503         1.3631   2  16   0.1026   0.0870   0.1734   0.0184  -0.0762  -0.0545  -0.00    0.0
2016/07/11 23:56:00.800        -8.3354       -17.0495         1.3655   2  16   0.1023   0.0866   0.1724   0.0185  -0.0759  -0.0543  -0.00    0.0
2016/07/11 23:56:01.000        -8.3362       -17.0490         1.3715   2  16   0.1020   0.0863   0.1715   0.0185  -0.0756  -0.0540  -0.00    0.0
2016/07/11 23:56:01.200        -8.3354       -17.0478         1.3766   2  16   0.1016   0.0860   0.1705   0.0186  -0.0753  -0.0538  -0.00    0.0
2016/07/11 23:56:01.400        -8.3340       -17.0460         1.3776   2  16   0.1013   0.0856   0.1696   0.0186  -0.0750  -0.0535  -0.00    0.0
2016/07/11 23:56:01.600        -8.3326       -17.0439         1.3823   2  16   0.1010   0.0853   0.1687   0.0186  -0.0747  -0.0533  -0.00    0.0
2016/07/11 23:56:01.800        -8.3310       -17.0432         1.3893   2  16   0.1007   0.0850   0.1677   0.0187  -0.0744  -0.0530  -0.00    0.0
2016/07/11 23:56:02.000        -8.3303       -17.0413         1.3956   2  16   0.1004   0.0846   0.1668   0.0187  -0.0741  -0.0528  -0.00    0.0
2016/07/11 23:56:02.200        -8.3295       -17.0399         1.4023   2  16   0.1002   0.0843   0.1659   0.0188  -0.0738  -0.0526  -0.00    0.0
2016/07/11 23:56:02.400        -8.3292       -17.0384         1.4068   2  16   0.0999   0.0840   0.1650   0.0188  -0.0735  -0.0523  -0.00    0.0
2016/07/11 23:56:02.600        -8.3275       -17.0381         1.4112   2  16   0.0996   0.0836   0.1642   0.0188  -0.0732  -0.0521  -0.00    0.0
2016/07/11 23:56:02.800        -8.3263       -17.0383         1.4192   2  16   0.0993   0.0833   0.1633   0.0189  -0.0729  -0.0519  -0.00    0.0
2016/07/11 23:56:03.000        -8.3246       -17.0378         1.4239   2  16   0.0990   0.0830   0.1624   0.0189  -0.0726  -0.0516  -0.00    0.0
2016/07/11 23:56:03.200        -8.3238       -17.0368         1.4295   2  16   0.0987   0.0827   0.1616   0.0189  -0.0723  -0.0514  -0.00    0.0
2016/07/11 23:56:03.400        -8.3221       -17.0367         1.4355   2  16   0.0984   0.0823   0.1607   0.0189  -0.0720  -0.0512  -0.00    0.0
2016/07/11 23:56:03.600        -8.3217       -17.0359         1.4389   2  16   0.0981   0.0820   0.1598   0.0190  -0.0717  -0.0510  -0.00    0.0
2016/07/11 23:56:03.800        -8.3211       -17.0352         1.4415   2  16   0.0978   0.0817   0.1590   0.0190  -0.0714  -0.0507  -0.00    0.0
2016/07/11 23:56:04.000        -8.3208       -17.0339         1.4440   2  16   0.0976   0.0814   0.1582   0.0190  -0.0711  -0.0505  -0.00    0.0
2016/07/11 23:56:04.200        -8.3205       -17.0339         1.4455   2  16   0.0973   0.0811   0.1573   0.0191  -0.0709  -0.0503  -0.00    0.0
2016/07/11 23:56:04.400        -8.3205       -17.0322         1.4510   2  16   0.0970   0.0808   0.1565   0.0191  -0.0706  -0.0501  -0.00    0.0
2016/07/11 23:56:04.600        -8.3201       -17.0309         1.4553   2  16   0.0967   0.0805   0.1557   0.0191  -0.0703  -0.0499  -0.00    0.0
2016/07/11 23:56:04.800        -8.3198       -17.0292         1.4606   2  16   0.0964   0.0802   0.1549   0.0191  -0.0700  -0.0497  -0.00    0.0
2016/07/11 23:56:05.000        -8.3192       -17.0294         1.4638   2  16   0.0962   0.0799   0.1541   0.0192  -0.0698  -0.0495  -0.00    0.0
2016/07/11 23:56:05.200        -8.3198       -17.0295         1.4710   2  16   0.0959   0.0796   0.1533   0.0192  -0.0695  -0.0493  -0.00    0.0
2016/07/11 23:56:05.400        -8.3188       -17.0284         1.4756   2  16   0.0956   0.0793   0.1525   0.0192  -0.0692  -0.0491  -0.00    0.0
2016/07/11 23:56:05.600        -8.3198       -17.0271         1.4813   2  16   0.0954   0.0790   0.1518   0.0192  -0.0689  -0.0488  -0.00    0.0
2016/07/11 23:56:05.800        -8.3208       -17.0257         1.4801   2  16   0.0951   0.0787   0.1510   0.0193  -0.0687  -0.0486  -0.00    0.0
2016/07/11 23:56:06.000        -8.3207       -17.0247         1.4841   2  16   0.0948   0.0784   0.1502   0.0193  -0.0684  -0.0484  -0.00    0.0
2016/07/11 23:56:06.200        -8.3214       -17.0229         1.4845   2  16   0.0945   0.0781   0.1495   0.0193  -0.0681  -0.0482  -0.00    0.0
2016/07/11 23:56:06.400        -8.3223       -17.0227         1.4907   2  16   0.0943   0.0778   0.1487   0.0193  -0.0679  -0.0480  -0.00    0.0
2016/07/11 23:56:06.600        -8.3219       -17.0235         1.4976   2  16   0.0940   0.0775   0.1480   0.0193  -0.0676  -0.0479  -0.00    0.0
2016/07/11 23:56:06.800        -8.3217       -17.0226         1.5025   2  16   0.0938   0.0772   0.1472   0.0193  -0.0673  -0.0477  -0.00    0.0
2016/07/11 23:56:07.000        -8.3224       -17.0217         1.5056   2  16   0.0935   0.0769   0.1465   0.0194  -0.0671  -0.0475  -0.00    0.0
2016/07/11 23:56:07.200        -8.3228       -17.0207         1.5074   2  16   0.0932   0.0766   0.1458   0.0194  -0.0668  -0.0473  -0.00    0.0
2016/07/11 23:56:07.400        -8.3222       -17.0188         1.5161   2  16   0.0930   0.0763   0.1450   0.0194  -0.0666  -0.0471  -0.00    0.0
2016/07/11 23:56:07.600        -8.3218       -17.0184         1.5220   2  16   0.0927   0.0761   0.1443   0.0194  -0.0663  -0.0469  -0.00    0.0
2016/07/11 23:56:07.800        -8.3219       -17.0176         1.5257   2  16   0.0925   0.0758   0.1436   0.0194  -0.0661  -0.0467  -0.00    0.0
2016/07/11 23:56:08.000        -8.3200       -17.0167         1.5276   2  16   0.0922   0.0755   0.1429   0.0194  -0.0658  -0.0465  -0.00    0.0
2016/07/11 23:56:08.200        -8.3189       -17.0149         1.5276   2  16   0.0920   0.0752   0.1422   0.0195  -0.0656  -0.0463  -0.00    0.0
2016/07/11 23:56:08.400        -8.3180       -17.0146         1.5306   2  16   0.0917   0.0749   0.1415   0.0195  -0.0653  -0.0462  -0.00    0.0
2016/07/11 23:56:08.600        -8.3175       -17.0139         1.5341   2  16   0.0915   0.0747   0.1408   0.0195  -0.0651  -0.0460  -0.00    0.0
2016/07/11 23:56:08.800        -8.3173       -17.0127         1.5366   2  16   0.0912   0.0744   0.1401   0.0195  -0.0648  -0.0458  -0.00    0.0
2016/07/11 23:56:09.000        -8.3176       -17.0117         1.5393   2  16   0.0910   0.0741   0.1395   0.0195  -0.0646  -0.0456  -0.00    0.0
2016/07/11 23:56:09.200        -8.3174       -17.0090         1.5414   2  16   0.0907   0.0739   0.1388   0.0195  -0.0643  -0.0455  -0.00    0.0
2016/07/11 23:56:09.400        -8.3178       -17.0089         1.5466   2  16   0.0905   0.0736   0.1381   0.0195  -0.0641  -0.0453  -0.00    0.0
2016/07/11 23:56:09.600        -8.3187       -17.0091         1.5514   2  16   0.0902   0.0733   0.1375   0.0195  -0.0639  -0.0451  -0.00    0.0
2016/07/11 23:56:09.800        -8.3190       -17.0080         1.5536   2  16   0.0900   0.0731   0.1368   0.0196  -0.0636  -0.0449  -0.00    0.0
2016/07/11 23:56:10.000        -8.3203       -17.0088         1.5599   2  16   0.0897   0.0728   0.1361   0.0196  -0.0634  -0.0448  -0.00    0.0
2016/07/11 23:56:10.200        -8.3204       -17.0093         1.5638   2  16   0.0895   0.0725   0.1355   0.0196  -0.0631  -0.0446  -0.00    0.0
2016/07/11 23:56:10.400        -8.3206       -17.0079         1.5648   2  16   0.0893   0.0723   0.1349   0.0196  -0.0629  -0.0444  -0.00    0.0
2016/07/11 23:56:10.600        -8.3223       -17.0058         1.5666   2  16   0.0890   0.0720   0.1342   0.0196  -0.0627  -0.0443  -0.00    0.0
2016/07/11 23:56:10.800        -8.3226       -17.0048         1.5692   2  16   0.0888   0.0718   0.1336   0.0196  -0.0624  -0.0441  -0.00    0.0
2016/07/11 23:56:11.000        -8.3242       -17.0027         1.5735   2  16   0.0885   0.0715   0.1330   0.0196  -0.0622  -0.0439  -0.00    0.0
2016/07/11 23:56:11.200        -8.3243       -17.0020         1.5764   2  16   0.0883   0.0712   0.1323   0.0196  -0.0620  -0.0438  -0.00    0.0
2016/07/11 23:56:11.400        -8.3258       -17.0019         1.5789   2  16   0.0881   0.0710   0.1317   0.0196  -0.0618  -0.0436  -0.00    0.0
2016/07/11 23:56:11.600        -8.3270       -17.0002         1.5826   2  16   0.0878   0.0707   0.1311   0.0196  -0.0615  -0.0435  -0.00    0.0
2016/07/11 23:56:11.800        -8.3279       -16.9992         1.5837   2  16   0.0876   0.0705   0.1305   0.0196  -0.0613  -0.0433  -0.00    0.0
2016/07/11 23:56:12.000        -8.3290       -16.9983         1.5843   2  16   0.0874   0.0702   0.1299   0.0196  -0.0611  -0.0431  -0.00    0.0
2016/07/11 23:56:12.200        -8.3301       -16.9976         1.5869   2  16   0.0871   0.0700   0.1293   0.0196  -0.0609  -0.0430  -0.00    0.0
2016/07/11 23:56:12.400        -8.3308       -16.9962         1.5876   2  16   0.0869   0.0697   0.1287   0.0197  -0.0606  -0.0428  -0.00    0.0
2016/07/11 23:56:12.600        -8.3311       -16.9963         1.5918   2  16   0.0867   0.0695   0.1281   0.0197  -0.0604  -0.0427  -0.00    0.0
2016/07/11 23:56:12.800        -8.3320       -16.9950         1.5956   2  16   0.0865   0.0693   0.1275   0.0197  -0.0602  -0.0425  -0.00    0.0
2016/07/11 23:56:13.000        -8.3331       -16.9944         1.5981   2  16   0.0862   0.0690   0.1270   0.0197  -0.0600  -0.0424  -0.00    0.0
2016/07/11 23:56:13.200        -8.3349       -16.9932         1.5999   2  16   0.0860   0.0688   0.1264   0.0197  -0.0598  -0.0422  -0.00    0.0
2016/07/11 23:56:13.400        -8.3364       -16.9932         1.6022   2  16   0.0858   0.0685   0.1258   0.0197  -0.0596  -0.0421  -0.00    0.0
2016/07/11 23:56:13.600        -8.3387       -16.9913         1.6055   2  16   0.0856   0.0683   0.1252   0.0197  -0.0593  -0.0419  -0.00    0.0
2016/07/11 23:56:13.800        -8.3403       -16.9920         1.6110   2  16   0.0853   0.0680   0.1247   0.0197  -0.0591  -0.0418  -0.00    0.0
2016/07/11 23:56:14.000        -8.3403       -16.9910         1.6129   2  16   0.0851   0.0678   0.1241   0.0197  -0.0589  -0.0416  -0.00    0.0
2016/07/11 23:56:14.200        -8.3407       -16.9897         1.6140   2  16   0.0849   0.0676   0.1236   0.0197  -0.0587  -0.0415  -0.00    0.0
2016/07/11 23:56:14.400        -8.3420       -16.9885         1.6163   2  16   0.0847   0.0673   0.1230   0.0197  -0.0585  -0.0413  -0.00    0.0
2016/07/11 23:56:14.600        -8.3423       -16.9885         1.6185   2  16   0.0845   0.0671   0.1225   0.0197  -0.0583  -0.0412  -0.00    0.0
2016/07/11 23:56:14.800        -8.3432       -16.9885         1.6197   2  16   0.0842   0.0669   0.1219   0.0197  -0.0581  -0.0410  -0.00    0.0
2016/07/11 23:56:15.000        -8.3451       -16.9876         1.6205   2  16   0.0840   0.0666   0.1214   0.0197  -0.0579  -0.0409  -0.00    0.0
2016/07/11 23:56:15.200        -8.3451       -16.9881         1.6223   2  16   0.0838   0.0664   0.1208   0.0197  -0.0577  -0.0408  -0.00    0.0
2016/07/11 23:56:15.400        -8.3462       -16.9890         1.6263   2  16   0.0836   0.0662   0.1203   0.0197  -0.0575  -0.0406  -0.00    0.0
2016/07/11 23:56:15.600        -8.3470       -16.9890         1.6311   2  16   0.0834   0.0660   0.1198   0.0197  -0.0573  -0.0405  -0.00    0.0
2016/07/11 23:56:15.800        -8.3483       -16.9897         1.6340   2  16   0.0832   0.0657   0.1193   0.0197  -0.0571  -0.0403  -0.00    0.0
2016/07/11 23:56:16.000        -8.3484       -16.9891         1.6362   2  16   0.0829   0.0655   0.1187   0.0197  -0.0569  -0.0402  -0.00    0.0
2016/07/11 23:56:16.200        -8.3491       -16.9884         1.6390   2  16   0.0827   0.0653   0.1182   0.0197  -0.0567  -0.0401  -0.00    0.0
2016/07/11 23:56:16.400        -8.3492       -16.9886         1.6425   2  16   0.0825   0.0651   0.1177   0.0197  -0.0565  -0.0399  -0.00    0.0
2016/07/11 23:56:16.600        -8.3489       -16.9879         1.6445   2  16   0.0823   0.0649   0.1172   0.0197  -0.0563  -0.0398  -0.00    0.0
2016/07/11 23:56:16.800        -8.3492       -16.9889         1.6486   2  16   0.0821   0.0646   0.1167   0.0197  -0.0561  -0.0397  -0.00    0.0
2016/07/11 23:56:17.000        -8.3497       -16.9885         1.6496   2  16   0.0819   0.0644   0.1162   0.0197  -0.0559  -0.0395  -0.00    0.0
2016/07/11 23:56:17.200        -8.3494       -16.9887         1.6526   2  16   0.0817   0.0642   0.1157   0.0197  -0.0557  -0.0394  -0.00    0.0
2016/07/11 23:56:17.400        -8.3496       -16.9868         1.6531   2  16   0.0815   0.0640   0.1152   0.0197  -0.0555  -0.0393  -0.00    0.0
2016/07/11 23:56:17.600        -8.3503       -16.9854         1.6539   2  16   0.0813   0.0638   0.1147   0.0196  -0.0553  -0.0392  -0.00    0.0
2016/07/11 23:56:17.800        -8.3505       -16.9847         1.6556   2  16   0.0811   0.0636   0.1142   0.0196  -0.0551  -0.0390  -0.00    0.0
2016/07/11 23:56:18.000        -8.3509       -16.9833         1.6586   2  16   0.0809   0.0633   0.1137   0.0196  -0.0549  -0.0389  -0.00    0.0
2016/07/11 23:56:18.200        -8.3502       -16.9828         1.6599   2  16   0.0807   0.0631   0.1133   0.0196  -0.0548  -0.0388  -0.00    0.0
2016/07/11 23:56:18.400        -8.3507       -16.9819         1.6602   2  16   0.0805   0.0629   0.1128   0.0196  -0.0546  -0.0386  -0.00    0.0
2016/07/11 23:56:18.600        -8.3509       -16.9800         1.6601   2  16   0.0803   0.0627   0.1123   0.0196  -0.0544  -0.0385  -0.00    0.0
2016/07/11 23:56:18.800        -8.3513       -16.9796         1.6632   2  16   0.0801   0.0625   0.1118   0.0196  -0.0542  -0.0384  -0.00    0.0
2016/07/11 23:56:19.000        -8.3506       -16.9792         1.6679   2  16   0.0799   0.0623   0.1114   0.0196  -0.0540  -0.0383  -0.00    0.0
2016/07/11 23:56:19.200        -8.3503       -16.9791         1.6696   2  16   0.0797   0.0621   0.1109   0.0196  -0.0538  -0.0382  -0.00    0.0
2016/07/11 23:56:19.400        -8.3502       -16.9773         1.6694   2  16   0.0795   0.0619   0.1104   0.0196  -0.0537  -0.0380  -0.00    0.0
2016/07/11 23:56:19.600        -8.3499       -16.9761         1.6716   2  16   0.0793   0.0617   0.1100   0.0196  -0.0535  -0.0379  -0.00    0.0
2016/07/11 23:56:19.800        -8.3492       -16.9754         1.6747   2  16   0.0791   0.0615   0.1095   0.0196  -0.0533  -0.0378  -0.00    0.0
2016/07/11 23:56:20.000        -8.3493       -16.9754         1.6775   2  16   0.0789   0.0613   0.1091   0.0196  -0.0531  -0.0377  -0.00    0.0
2016/07/11 23:56:20.200        -8.3499       -16.9754         1.6802   2  16   0.0787   0.0611   0.1086   0.0196  -0.0529  -0.0375  -0.00    0.0
2016/07/11 23:56:20.400        -8.3492       -16.9742         1.6809   2  16   0.0785   0.0609   0.1082   0.0196  -0.0528  -0.0374  -0.00    0.0
2016/07/11 23:56:20.600        -8.3490       -16.9738         1.6840   2  16   0.0783   0.0607   0.1077   0.0196  -0.0526  -0.0373  -0.00    0.0
2016/07/11 23:56:20.800        -8.3487       -16.9734         1.6859   2  16   0.0781   0.0605   0.1073   0.0195  -0.0524  -0.0372  -0.00    0.0
2016/07/11 23:56:21.000        -8.3482       -16.9726         1.6900   2  16   0.0779   0.0603   0.1069   0.0195  -0.0522  -0.0371  -0.00    0.0
2016/07/11 23:56:21.200        -8.3483       -16.9723         1.6933   2  16   0.0777   0.0601   0.1064   0.0195  -0.0521  -0.0370  -0.00    0.0
2016/07/11 23:56:21.400        -8.3477       -16.9716         1.6959   2  16   0.0776   0.0599   0.1060   0.0195  -0.0519  -0.0369  -0.00    0.0
2016/07/11 23:56:21.600        -8.3470       -16.9702         1.6992   2  16   0.0774   0.0597   0.1056   0.0195  -0.0517  -0.0367  -0.00    0.0
2016/07/11 23:56:21.800        -8.3470       -16.9693         1.7013   2  16   0.0772   0.0595   0.1051   0.0195  -0.0515  -0.0366  -0.00    0.0
2016/07/11 23:56:22.000        -8.3463       -16.9681         1.7022   2  16   0.0770   0.0593   0.1047   0.0195  -0.0514  -0.0365  -0.00    0.0
2016/07/11 23:56:22.200        -8.3466       -16.9675         1.7051   2  16   0.0768   0.0591   0.1043   0.0195  -0.0512  -0.0364  -0.00    0.0
2016/07/11 23:56:22.400        -8.3465       -16.9672         1.7062   2  16   0.0766   0.0589   0.1039   0.0195  -0.0510  -0.0363  -0.00    0.0
2016/07/11 23:56:22.600        -8.3469       -16.9658         1.7077   2  16   0.0764   0.0587   0.1035   0.0195  -0.0509  -0.0362  -0.00    0.0
2016/07/11 23:56:22.800        -8.3469       -16.9656         1.7082   2  16   0.0763   0.0586   0.1031   0.0195  -0.0507  -0.0361  -0.00    0.0
2016/07/11 23:56:23.000        -8.3463       -16.9651         1.7092   2  16   0.0761   0.0584   0.1026   0.0194  -0.0505  -0.0360  -0.00    0.0
2016/07/11 23:56:23.200        -8.3452       -16.9653         1.7106   2  16   0.0759   0.0582   0.1022   0.0194  -0.0504  -0.0359  -0.00    0.0
2016/07/11 23:56:23.400        -8.3452       -16.9641         1.7117   2  16   0.0757   0.0580   0.1018   0.0194  -0.0502  -0.0357  -0.00    0.0
2016/07/11 23:56:23.600        -8.3445       -16.9640         1.7131   2  16   0.0755   0.0578   0.1014   0.0194  -0.0500  -0.0356  -0.00    0.0
2016/07/11 23:56:23.800        -8.3438       -16.9635         1.7144   2  16   0.0753   0.0576   0.1010   0.0194  -0.0499  -0.0355  -0.00    0.0
2016/07/11 23:56:24.000        -8.3430       -16.9623         1.7161   2  16   0.0752   0.0574   0.1006   0.0194  -0.0497  -0.0354  -0.00    0.0
2016/07/11 23:56:24.200        -8.3420       -16.9620         1.7159   2  16   0.0750   0.0573   0.1002   0.0194  -0.0496  -0.0353  -0.00    0.0
2016/07/11 23:56:24.400        -8.3415       -16.9608         1.7149   2  16   0.0748   0.0571   0.0999   0.0194  -0.0494  -0.0352  -0.00    0.0
2016/07/11 23:56:24.600        -8.3407       -16.9599         1.7142   2  16   0.0746   0.0569   0.0995   0.0194  -0.0492  -0.0351  -0.00    0.0
2016/07/11 23:56:24.800        -8.3386       -16.9577         1.7124   2  16   0.0745   0.0567   0.0991   0.0193  -0.0491  -0.0350  -0.00    0.0
2016/07/11 23:56:25.000        -8.3372       -16.9560         1.7120   2  16   0.0743   0.0565   0.0987   0.0193  -0.0489  -0.0349  -0.00    0.0
2016/07/11 23:56:25.200        -8.3364       -16.9554         1.7141   2  16   0.0741   0.0564   0.0983   0.0193  -0.0488  -0.0348  -0.00    0.0
2016/07/11 23:56:25.400        -8.3359       -16.9546         1.7147   2  16   0.0739   0.0562   0.0979   0.0193  -0.0486  -0.0347  -0.00    0.0
2016/07/11 23:56:25.600        -8.3343       -16.9538         1.7165   2  16   0.0737   0.0560   0.0976   0.0193  -0.0485  -0.0346  -0.00    0.0
2016/07/11 23:56:25.800        -8.3331       -16.9535         1.7179   2  16   0.0736   0.0558   0.0972   0.0193  -0.0483  -0.0345  -0.00    0.0
2016/07/11 23:56:26.000        -8.3323       -16.9532         1.7198   2  16   0.0734   0.0557   0.0968   0.0193  -0.0482  -0.0344  -0.00    0.0
2016/07/11 23:56:26.200        -8.3312       -16.9518         1.7200   2  16   0.0732   0.0555   0.0965   0.0193  -0.0480  -0.0343  -0.00    0.0
2016/07/11 23:56:26.400        -8.3308       -16.9515         1.7229   2  16   0.0731   0.0553   0.0961   0.0192  -0.0479  -0.0342  -0.00    0.0
2016/07/11 23:56:26.600        -8.3294       -16.9511         1.7240   2  16   0.0729   0.0551   0.0957   0.0192  -0.0477  -0.0341  -0.00    0.0
2016/07/11 23:56:26.800        -8.3291       -16.9505         1.7259   2  16   0.0727   0.0550   0.0954   0.0192  -0.0476  -0.0340  -0.00    0.0
2016/07/11 23:56:27.000        -8.3295       -16.9506         1.7279   2  16   0.0725   0.0548   0.0950   0.0192  -0.0474  -0.0339  -0.00    0.0
2016/07/11 23:56:27.200        -8.3284       -16.9493         1.7280   2  16   0.0724   0.0546   0.0946   0.0192  -0.0473  -0.0338  -0.00    0.0
2016/07/11 23:56:27.400        -8.3278       -16.9472         1.7290   2  16   0.0722   0.0545   0.0943   0.0192  -0.0471  -0.0337  -0.00    0.0
2016/07/11 23:56:27.600        -8.3277       -16.9463         1.7304   2  16   0.0720   0.0543   0.0939   0.0192  -0.0470  -0.0336  -0.00    0.0
2016/07/11 23:56:27.800        -8.3266       -16.9446         1.7321   2  16   0.0719   0.0541   0.0936   0.0191  -0.0468  -0.0335  -0.00    0.0
2016/07/11 23:56:28.000        -8.3259       -16.9437         1.7341   2  16   0.0717   0.0540   0.0932   0.0191  -0.0467  -0.0334  -0.00    0.0
2016/07/11 23:56:28.200        -8.3249       -16.9425         1.7348   2  16   0.0715   0.0538   0.0929   0.0191  -0.0465  -0.0334  -0.00    0.0
2016/07/11 23:56:28.400        -8.3242       -16.9416         1.7361   2  16   0.0714   0.0536   0.0925   0.0191  -0.0464  -0.0333  -0.00    0.0
2016/07/11 23:56:28.600        -8.3236       -16.9405         1.7383   2  16   0.0712   0.0535   0.0922   0.0191  -0.0462  -0.0332  -0.00    0.0
2016/07/11 23:56:28.800        -8.3223       -16.9394         1.7392   2  16   0.0710   0.0533   0.0919   0.0191  -0.0461  -0.0331  -0.00    0.0
2016/07/11 23:56:29.000        -8.3216       -16.9381         1.7410   2  16   0.0709   0.0532   0.0915   0.0191  -0.0460  -0.0330  -0.00    0.0
2016/07/11 23:56:29.200        -8.3216       -16.9367         1.7433   2  16   0.0707   0.0530   0.0912   0.0190  -0.0458  -0.0329  -0.00    0.0
2016/07/11 23:56:29.400        -8.3210       -16.9346         1.7439   2  16   0.0706   0.0528   0.0909   0.0190  -0.0457  -0.0328  -0.00    0.0
2016/07/11 23:56:29.600        -8.3206       -16.9336         1.7471   2  16   0.0704   0.0527   0.0905   0.0190  -0.0455  -0.0327  -0.00    0.0
2016/07/11 23:56:29.800        -8.3199       -16.9324         1.7500   2  16   0.0702   0.0525   0.0902   0.0190  -0.0454  -0.0326  -0.00    0.0
2016/07/11 23:56:30.000        -8.3187       -16.9319         1.7523   2  16   0.0701   0.0524   0.0899   0.0190  -0.0453  -0.0325  -0.00    0.0
2016/07/11 23:56:30.200        -8.3177       -16.9303         1.7533   2  16   0.0699   0.0522   0.0895   0.0190  -0.0451  -0.0324  -0.00    0.0
2016/07/11 23:56:30.400        -8.3162       -16.9301         1.7550   2  16   0.0698   0.0520   0.0892   0.0189  -0.0450  -0.0324  -0.00    0.0
2016/07/11 23:56:30.600        -8.3154       -16.9296         1.7573   2  16   0.0696   0.0519   0.0889   0.0189  -0.0448  -0.0323  -0.00    0.0
2016/07/11 23:56:30.800        -8.3151       -16.9281         1.7587   2  16   0.0694   0.0517   0.0886   0.0189  -0.0447  -0.0322  -0.00    0.0
2016/07/11 23:56:31.000        -8.3146       -16.9275         1.7625   2  16   0.0693   0.0516   0.0883   0.0189  -0.0446  -0.0321  -0.00    0.0
2016/07/11 23:56:31.200        -8.3142       -16.9269         1.7626   2  16   0.0691   0.0514   0.0879   0.0189  -0.0444  -0.0320  -0.00    0.0
2016/07/11 23:56:31.400        -8.3137       -16.9262         1.7629   2  16   0.0690   0.0513   0.0876   0.0189  -0.0443  -0.0319  -0.00    0.0
2016/07/11 23:56:31.600        -8.3138       -16.9263         1.7648   2  16   0.0688   0.0511   0.0873   0.0188  -0.0442  -0.0318  -0.00    0.0
2016/07/11 23:56:31.800        -8.3123       -16.9250         1.7654   2  16   0.0687   0.0510   0.0870   0.0188  -0.0440  -0.0317  -0.00    0.0
2016/07/11 23:56:32.000        -8.3115       -16.9239         1.7674   2  16   0.0685   0.0508   0.0867   0.0188  -0.0439  -0.0317  -0.00    0.0
2016/07/11 23:56:32.200        -8.3110       -16.9226         1.7686   2  16   0.0683   0.0507   0.0864   0.0188  -0.0438  -0.0316  -0.00    0.0
2016/07/11 23:56:32.400        -8.3103       -16.9227         1.7703   2  16   0.0682   0.0505   0.0861   0.0188  -0.0436  -0.0315  -0.00    0.0
2016/07/11 23:56:32.600        -8.3099       -16.9217         1.7713   2  16   0.0680   0.0504   0.0858   0.0188  -0.0435  -0.0314  -0.00    0.0
2016/07/11 23:56:32.800        -8.3095       -16.9212         1.7726   2  16   0.0679   0.0502   0.0855   0.0187  -0.0434  -0.0313  -0.00    0.0
2016/07/11 23:56:33.000        -8.3089       -16.9198         1.7730   2  16   0.0677   0.0501   0.0852   0.0187  -0.0433  -0.0312  -0.00    0.0
2016/07/11 23:56:33.200        -8.3083       -16.9188         1.7735   2  16   0.0676   0.0499   0.0849   0.0187  -0.0431  -0.0312  -0.00    0.0
2016/07/11 23:56:33.400        -8.3082       -16.9184         1.7749   2  16   0.0674   0.0498   0.0846   0.0187  -0.0430  -0.0311  -0.00    0.0
2016/07/11 23:56:33.600        -8.3074       -16.9178         1.7746   2  16   0.0673   0.0496   0.0843   0.0187  -0.0429  -0.0310  -0.00    0.0
2016/07/11 23:56:33.800        -8.3067       -16.9176         1.7756   2  16   0.0671   0.0495   0.0840   0.0187  -0.0427  -0.0309  -0.00    0.0
2016/07/11 23:56:34.000        -8.3056       -16.9163         1.7759   2  16   0.0670   0.0494   0.0837   0.0186  -0.0426  -0.0308  -0.00    0.0
2016/07/11 23:56:34.200        -8.3044       -16.9163         1.7770   2  16   0.0668   0.0492   0.0834   0.0186  -0.0425  -0.0308  -0.00    0.0
2016/07/11 23:56:34.400        -8.3036       -16.9149         1.7780   2  16   0.0667   0.0491   0.0831   0.0186  -0.0424  -0.0307  -0.00    0.0
2016/07/11 23:56:34.600        -8.3035       -16.9125         1.7770   2  16   0.0665   0.0489   0.0828   0.0186  -0.0422  -0.0306  -0.00    0.0
2016/07/11 23:56:34.800        -8.3017       -16.9123         1.7776   2  16   0.0664   0.0488   0.0826   0.0186  -0.0421  -0.0305  -0.00    0.0
2016/07/11 23:56:35.000        -8.3004       -16.9116         1.7783   2  16   0.0662   0.0486   0.0823   0.0186  -0.0420  -0.0304  -0.00    0.0
2016/07/11 23:56:35.200        -8.2989       -16.9111         1.7792   2  16   0.0661   0.0485   0.0820   0.0185  -0.0419  -0.0304  -0.00    0.0
2016/07/11 23:56:35.400        -8.2971       -16.9099         1.7792   2  16   0.0660   0.0484   0.0817   0.0185  -0.0418  -0.0303  -0.00    0.0
2016/07/11 23:56:35.600        -8.2957       -16.9085         1.7794   2  16   0.0658   0.0482   0.0814   0.0185  -0.0416  -0.0302  -0.00    0.0
2016/07/11 23:56:35.800        -8.2941       -16.9078         1.7805   2  16   0.0657   0.0481   0.0812   0.0185  -0.0415  -0.0301  -0.00    0.0
